"city","country","pop2025","latitude","longitude"
"Mumbai","India",12691836,19.0728,72.8826
"Delhi","India",10927986,28.652,77.2315
"Bengaluru","India",5104047,12.9719,77.5937
"Kolkata","India",4631392,22.5626,88.363
"Chennai","India",4328063,13.0878,80.2785
"Ahmedabad","India",3719710,23.0258,72.5873
"Hyderabad","India",3597816,17.3841,78.4564
"Pune","India",2935744,18.5196,73.8553
"Surat","India",2894504,21.1959,72.8302
"Kanpur","India",2823249,26.4652,80.3497
"Jaipur","India",2711758,26.9196,75.7878
"Navi Mumbai","India",2600000,19.0368,73.0158
"Lucknow","India",2472011,26.8393,80.9231
"Nagpur","India",2228018,21.1463,79.0849
"Indore","India",1837041,22.7179,75.8333
"Patna","India",1599920,25.5941,85.1356
"Bhopal","India",1599914,23.2547,77.4029
"Ludhiana","India",1545368,30.912,75.8538
"Tirunelveli","India",1435844,8.72742,77.6838
"Agra","India",1430055,27.1833,78.0167
"Vadodara","India",1409476,22.2994,73.2081
"Gorakhpur","India",1324570,29.4477,75.6721
"Nashik","India",1289497,19.9973,73.791
"Pimpri","India",1284606,18.6229,73.807
"Kalyan","India",1262255,19.2437,73.1355
"Thane","India",1261517,19.197,72.9635
"Meerut","India",1223184,28.98,77.7064
"Nowrangapur","India",1220946,19.2311,82.5483
"Faridabad","India",1220229,28.4112,77.3132
"Ghaziabad","India",1199191,28.6653,77.4391
"Dombivli","India",1193000,19.2167,73.0833
"Rajkot","India",1177362,22.2916,70.7932
"Varanasi","India",1164404,25.3167,83.0104
"Amritsar","India",1092450,31.6223,74.8753
"Allahabad","India",1073438,25.4448,81.8432
"Visakhapatnam","India",1063178,17.6801,83.2016
"Teni","India",1034724,10.0112,77.4777
"Jabalpur","India",1030168,23.167,79.9501
"Haora","India",1027672,22.5769,88.3186
"Aurangabad","India",1016441,19.8776,75.3423
"Shivaji Nagar","India",1000000,18.5302,73.8526
"Solapur","India",997281,17.6715,75.9104
"Srinagar","India",975857,34.0857,74.8055
"Chandigarh","India",960787,30.7363,76.7884
"Coimbatore","India",959823,11.0056,76.9661
"Jodhpur","India",921476,26.2684,73.0059
"Madurai","India",909908,9.91769,78.119
"Guwahati","India",899094,26.1844,91.7458
"Gwalior","India",882458,26.2298,78.1734
"Vijayawada","India",874587,16.5075,80.6466
"Mysore","India",868313,12.2979,76.6393
"Ranchi","India",846454,23.3432,85.3094
"Hubli","India",840214,15.3478,75.1338
"Jalandhar","India",785178,31.3256,75.5792
"Thiruvananthapuram","India",784153,8.4855,76.9492
"Salem","India",778396,11.6538,78.1554
"Tiruchirappalli","India",775484,10.8155,78.6965
"Kota","India",763088,25.1825,75.8391
"Bhubaneshwar","India",762243,20.2724,85.8338
"Aligarh","India",753207,27.8815,78.0746
"Bareilly","India",745435,28.3668,79.4317
"Moradabad","India",721139,28.8389,78.7768
"Bhiwandi","India",707035,19.3002,73.0588
"Raipur","India",679995,21.2333,81.6333
"Gorakhpur","India",674246,26.7663,83.3689
"Bhilai","India",625138,21.2092,81.4285
"Jamshedpur","India",616338,22.8028,86.1854
"Borivli","India",609617,19.235,72.8598
"Cochin","India",604696,9.93988,76.2602
"Amravati","India",603837,20.9333,77.75
"Sangli","India",601214,16.8544,74.5642
"Cuttack","India",580000,20.465,85.8793
"Bikaner","India",576015,28.0176,73.3149
"Warangal","India",557802,18,79.5833
"Bhavnagar","India",554978,21.7629,72.1533
"Nanded","India",550564,19.1602,77.315
"Raurkela","India",536450,22.225,84.8641
"Guntur","India",530577,16.2997,80.4573
"Dehra Dun","India",522081,30.3244,78.0339
"Bhayandar","India",520301,19.3016,72.8511
"Durgapur","India",518872,23.5158,87.308
"Ajmer","India",517911,26.4521,74.6387
"Ulhasnagar","India",516584,19.2167,73.15
"Kolhapur","India",516142,16.6956,74.2317
"Shiliguri","India",515574,26.71,88.4285
"Bilimora","India",510879,20.7696,72.9613
"Karol Bagh","India",505241,28.6514,77.1907
"Asansol","India",504271,23.6833,86.9833
"Jamnagar","India",492056,22.4729,70.0667
"Saharanpur","India",484873,29.9679,77.5452
"Gulbarga","India",483615,17.3358,76.8376
"Bhatpara","India",483129,22.8664,88.4011
"Jammu","India",465567,32.7357,74.8691
"Kurnool","India",460184,15.8289,78.036
"Ujjain","India",457346,23.1824,75.7764
"Ramgundam","India",452261,18.8008,79.4521
"Shyamnagar","India",441956,22.8333,88.3667
"Nangi","India",440894,22.5083,88.2153
"Kozhikode","India",439922,11.248,75.7804
"Malegaon","India",435362,20.5497,74.5346
"Davangere","India",435128,14.4669,75.9269
"Jalgaon","India",429298,21.0029,75.566
"Akola","India",428857,20.7096,76.9981
"Belgaum","India",428720,15.8521,74.5045
"Gaya","India",423692,24.7969,85.0039
"Udaipur","India",422784,24.5858,73.7135
"Korba","India",419146,22.3458,82.6963
"Bokaro","India",418533,23.7871,85.9564
"Mangalore","India",417387,12.9172,74.856
"Jhansi","India",412927,25.4589,78.5799
"Thoothukudi","India",410760,8.76735,78.1342
"Nellore","India",404158,14.4499,79.987
"Tiruppur","India",397521,11.1154,77.3546
"Kollam","India",394163,8.88113,76.5847
"Panihati","India",378705,22.6909,88.374
"Ahmadnagar","India",367140,19.0946,74.7384
"Dhulia","India",366980,20.9013,74.7774
"Bhagalpur","India",361548,25.2445,86.9718
"Punasa","India",350000,22.2351,76.3933
"Muzaffarnagar","India",349706,29.4709,77.7033
"Latur","India",348967,18.3972,76.5678
"Kukatpalli","India",341709,17.4849,78.4138
"Ambattur","India",341049,13.0982,80.1615
"Bellary","India",336681,15.142,76.924
"Muzaffarpur","India",333200,26.1226,85.3905
"Kamarhati","India",332965,22.6711,88.3747
"Mathura","India",330511,27.5035,77.6721
"Patiala","India",329224,30.3363,76.3922
"Chanda","India",328351,19.9508,79.2952
"Bhilwara","India",326431,25.3471,74.6408
"Trichur","India",325110,10.5167,76.2167
"Brahmapur","India",324726,19.3115,84.7929
"Shahjanpur","India",320434,27.8817,79.9092
"Shimoga","India",319550,13.9316,75.5679
"New Delhi","India",317797,28.6358,77.2244
"Rohtak","India",317245,28.8945,76.5892
"Tumkur","India",307359,13.3414,77.1022
"Firozabad","India",306409,27.1509,78.3978
"Nizamabad","India",305438,18.6715,78.0988
"Kulti","India",305405,23.7317,86.8437
"Rajahmundry","India",304804,17.0052,81.7778
"Barddhaman","India",301725,23.2557,87.8569
"Barasat","India",298127,22.7215,88.482
"Bali","India",296973,22.6486,88.3411
"Hisar","India",296436,29.1539,75.7229
"Rampur","India",296418,28.8101,79.027
"Greater Noida","India",293908,28.4961,77.536
"Noida","India",293908,28.58,77.33
"Kakinada","India",292923,16.9604,82.2381
"Panipat","India",292808,29.3875,76.9682
"Parbhani","India",289629,19.2686,76.7708
"Darbhanga","India",287150,26.1522,85.8971
"Alwar","India",283228,27.5625,76.625
"Bilaspur","India",282705,22.08,82.1554
"Ichalkaranji","India",274383,16.6912,74.4605
"Bijapur","India",271064,16.8244,75.7154
"Aizawl","India",265331,23.7289,92.7179
"Jalna","India",262034,19.841,75.8864
"Lal Bahadur Nagar","India",261987,17.3477,78.5576
"Dewas","India",261218,22.9659,76.0553
"Baranagar","India",260072,22.6413,88.3773
"Gajuwaka","India",258944,17.7,83.2167
"Satna","India",257778,24.5773,80.8272
"Etawah","India",257448,26.7761,79.0213
"Durg","India",255283,21.1915,81.2762
"Naihati","India",253221,22.894,88.4152
"Tirupati","India",250821,13.6355,79.4199
"Sonipat","India",250521,28.9948,77.0194
"Avadi","India",250044,13.1147,80.1098
"Tiruvottiyur","India",248059,13.1582,80.3018
"Saugor","India",247333,23.8388,78.7387
"Mau","India",246050,25.9417,83.5611
"Bihar Sharif","India",244230,25.2008,85.5239
"Hapur","India",242920,28.7299,77.7807
"Bathinda","India",242800,30.2075,74.9389
"Farrukhabad","India",241152,27.3913,79.5793
"Anantapur","India",240442,14.6778,77.6081
"Barasat","India",237783,22.2252,88.4509
"Ratlam","India",236843,23.3303,75.0403
"Ramagundam","India",235000,18.755,79.474
"Ganganagar","India",231838,29.9201,73.875
"Bharatpur","India",229384,27.2173,77.4901
"Karimnagar","India",228745,18.4391,79.1286
"Puducherry","India",227411,11.9338,79.8298
"Shrirampur","India",226317,22.7528,88.3422
"Raichur","India",225962,16.2055,77.3557
"Quthbullapur","India",225816,17.5011,78.4582
"Karnal","India",225049,29.692,76.9845
"Arrah","India",223676,25.5563,84.6634
"Imphal","India",223523,24.8081,93.9442
"Gosaba","India",222764,22.1655,88.8007
"Mirzapur","India",220029,25.1449,82.5653
"Kharagpur","India",219665,22.3397,87.325
"Dhanbad","India",219636,23.802,86.4432
"Tanjore","India",219571,10.7852,79.1391
"Amarnath","India",217780,19.2,73.1667
"Nagercoil","India",213858,8.17899,77.4323
"Pali","India",210103,25.7728,73.3233
"Yamunanagar","India",208931,30.128,77.2837
"Rewa","India",208461,24.5326,81.2923
"Secunderabad","India",204182,17.5043,78.5426
"Bidar","India",204071,17.9133,77.5301
"Agartala","India",203264,23.8361,91.2794
"Monghyr","India",203163,25.3746,86.4745
"Burhanpur","India",202695,21.3087,76.2303
"Nadiad","India",202067,22.6938,72.8616
"Chapra","India",201597,25.7803,84.7471
"Dindigul","India",200797,10.369,77.9804
"Panchkula","India",200000,30.6946,76.8504
"Sikar","India",199932,27.6121,75.14
"Bulandshahr","India",198612,28.4039,77.8577
"Purnia","India",198453,25.7789,87.4742
"Hospet","India",197846,15.2695,76.3871
"Gurgaon","India",197340,28.4601,77.0264
"Sambhal","India",196109,28.585,78.5696
"Gandhinagar","India",195985,23.2167,72.6833
"Murwara","India",195856,23.8378,80.3941
"Nangloi Jat","India",194363,28.6796,77.068
"Machilipatnam","India",192827,16.1875,81.1389
"Katihar","India",192555,25.5385,87.5704
"Bhiwani","India",190855,28.793,76.1397
"Kultali","India",187942,21.9,88.4
"Raebareli","India",186433,26.2309,81.2331
"Haridwar","India",186079,29.9479,78.1602
"Singrauli","India",185580,24.1997,82.6753
"Junagadh","India",184447,21.5197,70.4598
"Sujangarh","India",183808,27.7,74.4667
"Ellore","India",183387,16.7131,81.1044
"Bhusaval","India",183001,21.0436,75.7851
"Khandwa","India",182841,21.8243,76.3509
"Bahraigh","India",182218,27.5743,81.5947
"Sirsa","India",181639,29.5349,75.029
"Chandannagar","India",180623,22.8622,88.368
"Baharampur","India",180547,24.1047,88.2515
"Surendranagar","India",179628,22.7271,71.6486
"Vizianagaram","India",179358,18.1169,83.4115
"Proddatur","India",177797,14.7502,78.5481
"Vellore","India",177081,12.9184,79.1326
"Hugli","India",177005,22.9088,88.3967
"Alleppey","India",176783,9.49004,76.3264
"Amroha","India",176253,28.9031,78.4698
"Tambaram","India",174787,12.9246,80.1271
"Pathankot","India",174306,32.2748,75.6529
"Bhind","India",174035,26.5667,78.7873
"Shimla","India",173503,31.1044,77.1666
"Ongole","India",172872,15.5036,80.0445
"Gadag-Betageri","India",172813,15.4167,75.6167
"Puri","India",170841,19.7983,85.8249
"Haldia","India",170695,22.0605,88.1097
"Khammam","India",170503,17.2477,80.1437
"Raiganj","India",170252,25.6128,88.1245
"Ingraj Bazar","India",170039,25.0045,88.1457
"Jaunpur","India",169572,25.7536,82.6869
"Fatehpur","India",166480,25.9277,80.8127
"Gandhidham","India",166388,23.0833,70.1333
"Nandyal","India",165337,15.478,78.4836
"Udupi","India",165000,13.3347,74.7462
"Loni","India",164810,28.7514,77.2902
"Sitapur","India",164435,27.5619,80.6826
"Shivpuri","India",164215,25.4238,77.6622
"Bhadravati","India",163903,13.8485,75.705
"Adoni","India",163631,15.6279,77.2749
"Veraval","India",163326,20.9077,70.3679
"Sambalpur","India",162887,21.4653,83.9757
"Gadag","India",162569,15.4298,75.6297
"Unnao","India",161671,26.5471,80.4878
"Budaun","India",161555,28.0381,79.1267
"Jind","India",161260,29.3158,76.315
"Madhyamgram","India",161126,22.6894,88.4459
"Jamuria","India",160242,23.7047,87.0787
"Jaigaon","India",158664,26.8477,89.3756
"Cuddalore","India",158569,11.7562,79.7669
"Orai","India",158265,25.9902,79.4533
"Hoshiarpur","India",158142,31.5372,75.9127
"Pallavaram","India",157145,12.968,80.1503
"Hanumangarh","India",155687,29.5818,74.3294
"Kanchipuram","India",155029,12.8351,79.7001
"Alandur","India",153775,13.0025,80.2061
"Guna","India",153689,24.6469,77.3113
"Bahadurgarh","India",153613,28.6929,76.9355
"Bharuch","India",153528,21.6948,72.9805
"Medinipur","India",153349,22.4211,87.3226
"Fyzabad","India",153047,26.7755,82.1502
"Dinapore","India",152940,25.6371,85.0479
"Silchar","India",152393,24.8273,92.7979
"Banda","India",152218,25.4776,80.3349
"Morena","India",152004,26.4989,77.9953
"Tonk","India",151331,26.1664,75.7882
"Raj-Nandgaon","India",150755,21.0969,81.0289
"Serilingampalle","India",150525,17.4931,78.302
"Virar","India",150357,19.4559,72.8114
"Malkajgiri","India",150000,17.4478,78.5263
"Shantipur","India",149983,23.2472,88.433
"Barakpur","India",148174,22.766,88.3634
"Erode","India",147270,11.3428,77.7274
"Ambala","India",146787,30.361,76.7978
"Krishnanagar","India",145926,23.4058,88.4907
"Saharsa","India",145764,25.875,86.5961
"Batala","India",145468,31.8092,75.2029
"Bhimavaram","India",142967,16.5408,81.5232
"Balurghat","India",141404,25.221,88.7773
"Kaithal","India",140604,29.8015,76.3996
"Lakhimpur","India",140223,27.9482,80.7794
"Hazaribagh","India",140063,23.9924,85.3616
"Vidisha","India",140045,23.526,77.8109
"Haldwani","India",139497,29.2225,79.5286
"Habra","India",139297,22.842,88.6561
"Kumbakonam","India",139264,10.9621,79.3912
"Porbandar","India",138872,21.6422,69.6093
"Chitradurga","India",138587,14.2226,76.4004
"Thanesar","India",138279,29.9732,76.8321
"Tiruvannamalai","India",138243,12.2266,79.0746
"Anand","India",138009,22.5525,72.9552
"Kanchrapara","India",136954,22.96,88.4285
"Mahbubnagar","India",136135,16.7439,77.986
"Dimapur","India",135860,25.9117,93.7217
"Robertsonpet","India",135218,12.9563,78.2754
"Chhindwara","India",134847,22.057,78.9396
"Mandya","India",134845,12.5223,76.8975
"Bankura","India",133966,23.2324,87.0716
"Hajipur","India",133606,25.6854,85.2098
"Gonda City","India",133583,27.1318,81.9533
"Bhuj","India",133459,23.254,69.6693
"Hindupur","India",133298,13.8281,77.4914
"Shillong","India",132842,25.5689,91.8831
"Palghat","India",132728,10.7732,76.6537
"Godhra","India",131913,22.7755,73.6149
"Kishangarh","India",131749,26.5901,74.854
"Raniganj","India",131261,23.6164,87.1306
"Pilibhit","India",131008,28.6312,79.8044
"Beawar","India",130777,26.1012,74.3203
"Abohar","India",130603,30.1445,74.1955
"Moga","India",130549,30.8138,75.1688
"Dehri","India",129938,24.9025,84.1822
"Deoria","India",129570,26.5017,83.7794
"Hassan","India",128531,13.0071,76.0962
"Khardah","India",128346,22.7186,88.3781
"Yavatmal","India",128175,20.3932,78.132
"Halisahar","India",128172,22.9322,88.4186
"Panvel","India",128046,18.9888,73.1101
"Titagarh","India",127751,22.7425,88.3733
"Cuddapah","India",127010,14.4799,78.8235
"Bettiah","India",127008,26.8023,84.5031
"Hathras","India",126882,27.5955,78.052
"Lalitpur","India",126475,24.6901,78.4192
"Kolar","India",126441,13.1377,78.13
"Mandsaur","India",124988,24.0718,75.0699
"Gondia","India",124897,21.4603,80.192
"Rajapalaiyam","India",124168,9.45296,77.5534
"Darjiling","India",123797,27.0333,88.2667
"Mohali","India",123484,30.68,76.7221
"Palanpur","India",123294,24.1713,72.4383
"Dam Dam","India",122719,22.6334,88.4229
"Hardoi","India",122635,27.3949,80.1317
"Puruliya","India",122533,23.3306,86.363
"Dibrugarh","India",122155,27.4799,94.9084
"Palwal","India",121965,28.1447,77.3255
"Nalgonda","India",121826,17.0544,79.2671
"Bhadreswar","India",121662,22.8245,88.3384
"Vejalpur","India",121610,22.6902,73.563
"Chikmagalur","India",121484,13.3223,75.774
"Raigarh","India",121278,21.8976,83.3966
"Guntakal Junction","India",120964,15.1711,77.3624
"Gangapur","India",120115,26.4725,76.7174
"Deoli","India",120000,28.5025,77.2312
"Siwan","India",119181,26.221,84.3561
"Damoh","India",118776,23.8331,79.4419
"Adilabad","India",118526,19.672,78.5359
"Chicacole","India",118299,18.2989,83.8975
"Uppal Kalan","India",118259,17.4058,78.5591
"Jetpur","India",118068,21.7548,70.6235
"Morbi","India",118022,22.8173,70.8377
"Patan","India",117863,23.8507,72.1296
"Khanna","India",117137,30.7055,76.222
"Botad","India",117053,22.1692,71.6667
"Rishra","India",117014,22.7239,88.3456
"Azamgarh","India",116644,26.0683,83.1836
"Yelahanka","India",116447,13.1007,77.5963
"Gudivada","India",116161,16.4355,80.9956
"Baidyabati","India",115504,22.785,88.3259
"Basti","India",115115,26.7882,82.7162
"Balasore","India",114321,21.4927,86.9335
"Dharmavaram","India",114050,14.4143,77.7204
"Maler Kotla","India",113840,30.5309,75.8795
"Wardha","India",113759,20.7393,78.5978
"Jhunjhunun","India",113193,28.1256,75.398
"Satara","India",112793,17.6859,73.9933
"Chanduasi","India",112635,28.4518,78.7828
"Mothihari","India",112144,26.6486,84.9166
"Chas","India",112141,23.6356,86.1671
"Pudukkottai","India",112118,10.3813,78.8214
"Rewari","India",112079,28.199,76.6183
"Port Blair","India",112050,11.6661,92.7464
"Suriapet","India",111729,17.1405,79.6205
"Bangaon","India",111693,23.0455,88.8308
"Chhatarpur","India",111594,24.9177,79.5887
"Ashoknagar Kalyangarh","India",111475,22.8642,88.637
"Achalpur","India",111278,21.2567,77.5101
"Navadwip","India",111123,23.4067,88.3686
"Barsi","India",110983,18.2345,75.6927
"Sultanpur","India",110368,26.2579,82.0727
"Ambur","India",109873,12.7916,78.7164
"Hoshangabad","India",109358,22.7475,77.7274
"Sawai Madhopur","India",108612,26.023,76.3441
"Madanapalle","India",108593,13.5503,78.5029
"Bansbaria","India",108474,22.9539,88.401
"Tadepallegudem","India",108167,16.8147,81.5272
"Jalpaiguri","India",107832,26.5167,88.7333
"Chittaurgarh","India",106710,24.8896,74.624
"Gangawati","India",106250,15.4313,76.5293
"Khurja","India",105909,28.2538,77.8553
"Ponnani","India",105512,10.7669,75.9252
"Barnala","India",105016,30.3745,75.5487
"Badlapur","India",104636,19.1552,73.2655
"Soyibug","India",104000,34.0768,74.7057
"Roorkee","India",103894,29.8663,77.8912
"Bagaha","India",103855,27.0992,84.09
"Hosur","India",103724,12.7365,77.8326
"Churu","India",103533,28.3041,74.9672
"Nagda","India",103501,23.4583,75.4176
"Kashipur","India",103138,29.214,78.9569
"Ghazipur","India",103095,25.5833,83.5853
"Begusarai","India",103060,25.4185,86.1339
"Dhaulpur","India",102462,26.6929,77.8797
"Mormugao","India",102345,15.3891,73.8149
"Ferozepore","India",102130,30.9257,74.6131
"Gondal","India",101801,21.9607,70.8026
"Seoni","India",101379,22.085,79.5504
"Jagadhri","India",101300,30.1672,77.3037
"Mirialguda","India",101234,16.8722,79.5625
"Udgir","India",101064,18.3926,77.1176
"Jamalpur","India",100780,25.3126,86.4889
"Nandurbar","India",100703,21.3667,74.2405
"Itarsi","India",100574,22.6148,77.7622
"Vasco da Gama","India",100485,15.3959,73.8157
"Phagwara","India",100146,31.2245,75.7739
"Airoli","India",100000,19.151,72.9962
"Amreli","India",99742,21.5998,71.2117
"Shikohabad","India",99678,27.108,78.5866
"Kasganj","India",99462,27.8088,78.6458
"Sehore","India",99284,23.2,77.0833
"Ranibennur","India",99105,14.6224,75.6295
"Jagtial","India",99035,18.7947,78.9166
"Bhadrakh","India",98648,21.0545,86.5156
"Bundi","India",98569,25.4386,75.6374
"Ooty","India",98238,11.4134,76.6952
"Mughal Sarai","India",98043,25.2831,83.1197
"Shamli","India",97966,29.4497,77.3096
"Hinganghat","India",97568,20.5487,78.8398
"Villupuram","India",97380,11.9397,79.4924
"Amalner","India",97369,21.0398,75.0589
"Bagalkot","India",97269,16.1867,75.6961
"Tellicherry","India",97201,11.7481,75.4929
"Narasaraopet","India",97194,16.2349,80.0493
"Nagaur","India",96847,27.202,73.7339
"Nawada","India",96730,24.8867,85.5436
"Jahanabad","India",96387,25.2137,84.9871
"Chalisgaon","India",96381,20.4578,75.016
"Buxar","India",96120,25.5755,83.9804
"Aurangabad","India",95929,24.752,84.3742
"Sahibganj","India",95890,25.2442,87.6348
"Pandharpur","India",95665,17.6792,75.331
"Hindaun","India",95593,26.7341,77.0352
"Khargone","India",94985,21.8229,75.6139
"Parli Vaijnath","India",94863,18.8506,76.5316
"Kishanganj","India",94807,26.1022,87.9553
"Mainpuri","India",94619,27.2286,79.0288
"Khamgaon","India",94604,20.7074,76.5683
"Negapatam","India",94238,10.7638,79.8431
"Chilakalurupet","India",94011,16.0899,80.1671
"Gudiyatham","India",93973,12.946,78.8738
"Makrana","India",93904,27.0436,74.7244
"Banswara","India",93648,23.5411,74.4425
"Baraut","India",93544,29.102,77.2633
"Closepet","India",93528,12.7218,77.2815
"Kalyani","India",93184,22.9833,88.4833
"Tadpatri","India",93044,14.9083,78.0103
"Kapurthala","India",92667,31.3801,75.3811
"Disa","India",92224,24.2561,72.1793
"Ballalpur","India",92146,19.847,79.3458
"Kohima","India",92113,25.6747,94.111
"Betul","India",91953,21.9006,77.9023
"Karaikkudi","India",91908,10.0661,78.7678
"Bagaha","India",91383,24.529,85.0602
"Balangir","India",91241,20.7042,83.4903
"Datia","India",90628,25.6731,78.4591
"Valparai","India",90353,10.3269,76.9512
"Kovilpatti","India",90296,9.17167,77.8699
"Vaniyambadi","India",90288,12.6816,78.6201
"Bhandara","India",90183,21.1682,79.6488
"Roha","India",90000,18.4369,73.1196
"Muktsar","India",89833,30.4743,74.5166
"Luckeesarai","India",89500,25.1765,86.0947
"Barmer","India",89487,25.7457,71.3921
"Muradnagar","India",89482,28.7807,77.4986
"Tinsukia","India",89373,27.489,95.3599
"Shahdol","India",89289,23.2936,81.3619
"Manjeri","India",89201,11.1202,76.12
"Mahoba","India",89170,25.2905,79.8753
"Contai","India",88702,21.7799,87.7489
"Sangrur","India",88615,30.2451,75.8449
"Pollachi","India",88214,10.6582,77.0085
"Deoband","India",88171,29.695,77.6796
"Neyyattinkara","India",88104,8.39854,77.0859
"Tanda","India",88073,26.5495,82.6584
"Baran","India",87478,25.1,76.5167
"Dhamtari","India",87151,20.7072,81.5487
"Tiruchengode","India",87123,11.3802,77.8944
"Chirala","India",87001,15.8238,80.3522
"Jharia","India",86938,23.7408,86.4146
"Akot","India",86917,21.0963,77.0588
"Rajpura","India",86820,30.4786,76.5928
"Madgaon","India",86818,15.275,73.9579
"Sardarshahr","India",86672,28.4406,74.491
"Mayiladuthurai","India",86660,11.1035,79.655
"Kamthi","India",86213,21.2162,79.1973
"Paradip Garh","India",85868,20.3164,86.6085
"Paramagudi","India",85695,9.54633,78.5907
"Osmanabad","India",85521,18.1816,76.0389
"Aruppukkottai","India",85369,9.5096,78.0959
"Baruni","India",84888,25.4751,85.9681
"Bijnor","India",84593,29.373,78.1364
"Anakapalle","India",84357,17.6913,83.004
"Najibabad","India",84006,29.6119,78.3427
"Dohad","India",83966,22.8328,74.2599
"Ramgarh","India",83833,23.6303,85.5216
"Kavali","India",83352,14.9163,79.9945
"Fatehpur","India",83170,27.9949,74.9563
"Jangipur","India",82548,24.47,88.0766
"Dhar","India",82438,22.5937,75.2977
"Hansi","India",82407,29.1024,75.9625
"Kadiri","India",81498,14.1117,78.1598
"Dhoraji","India",81445,21.7336,70.45
"Rayachoti","India",81433,14.0572,78.7506
"Khambhat","India",81328,22.3174,72.6192
"Nirmal","India",80982,19.0968,78.3441
"Emmiganur","India",80933,15.772,77.4835
"Jeypore","India",80837,18.8563,82.5716
"Kotkapura","India",80741,30.5819,74.833
"Udhampur","India",80447,32.9243,75.1357
"Kairana","India",80432,29.3954,77.2054
"Balaghat","India",80360,21.8156,80.1885
"Mansa","India",80018,29.9884,75.4017
"Anantnag","India",79821,33.7307,75.1542
"Karaikal","India",79653,10.9167,79.8333
"Jharsugra","India",79492,21.8624,84.0178
"Brajarajnagar","India",79421,21.8167,83.9167
"Kottagudem","India",79247,17.5511,80.6178
"Nawabganj","India",79246,26.9313,81.1984
"Arakkonam","India",79080,13.0845,79.6705
"Koch Bihar","India",78737,26.3254,89.4451
"Dod Ballapur","India",78676,13.2945,77.5378
"Bhadohi","India",78568,25.3953,82.5703
"Katoya","India",78408,23.6456,88.1326
"Jamui","India",78181,24.9261,86.2253
"Harihar","India",78034,14.5129,75.8072
"Mancheral","India",77998,18.8707,79.4286
"Kadayanallur","India",77772,9.07277,77.3415
"Daltonganj","India",77704,24.0397,84.0658
"Faridkot","India",77450,30.674,74.7558
"Balrampur","India",77396,27.4295,82.1854
"Baramula","India",77276,34.209,74.3428
"Dhulian","India",77070,24.6813,87.9535
"Mawana","India",76973,29.1029,77.922
"Karur","India",76915,10.9577,78.0809
"Kundla","India",76809,21.3422,71.3063
"Manmad","India",76722,20.2533,74.4376
"Kannauj","India",76714,27.0552,79.9188
"Malaut","India",76616,30.2112,74.4818
"Nagina","India",76593,29.4443,78.4365
"Badagara","India",76493,11.5978,75.5814
"Jagdalpur","India",76465,19.0814,82.0213
"Jumri Tilaiya","India",76341,24.4349,85.5295
"Baj Baj","India",76159,22.4751,88.1777
"Konnagar","India",76082,22.7051,88.3445
"Ratnagiri","India",75986,16.9915,73.3102
"Hingoli","India",75878,19.7146,77.1424
"Bodinayakkanur","India",75680,10.0117,77.3498
"Khadki","India",75654,18.5635,73.8521
"Dhrangadhra","India",75578,22.9917,71.4679
"Paloncha","India",75224,17.6018,80.7051
"Gudur","India",74851,14.1509,79.8521
"Ankleshwar","India",74742,21.6324,72.99
"Tikamgarh","India",74724,24.7433,78.8306
"Srivilliputhur","India",74370,9.51272,77.6337
"Sivakasi","India",74282,9.44999,77.798
"Pilkhua","India",74212,28.7127,77.656
"Ambajogai","India",74114,18.7331,76.3862
"Bela","India",73992,25.9206,81.9963
"Bodhan","India",73938,18.6621,77.8858
"Rabkavi","India",73835,16.4757,75.1106
"Karauli","India",73717,26.4983,77.0275
"Savarkundla","India",73695,21.3373,71.3035
"Shahabad","India",73606,27.6431,79.9402
"Chandpur","India",73555,29.1349,78.2719
"Gokak","India",73478,16.169,74.8239
"Sikandarabad","India",73379,28.4523,77.7
"Virudunagar","India",73273,9.58509,77.9579
"Dausa","India",73034,26.89,76.3358
"Valsad","India",72929,20.6101,72.9343
"Ambikapur","India",72821,23.1189,83.1954
"Palghar","India",72335,19.6969,72.7654
"Dharapuram","India",72291,10.7383,77.5322
"Chintamani","India",71798,13.4005,78.0517
"Faridpur","India",71783,28.21,79.5415
"Pusad","India",71588,19.9127,77.5784
"Madhubani","India",71582,26.3537,86.0717
"Sirsilla","India",71499,18.3887,78.8105
"Vapi","India",71395,20.3717,72.9049
"Kamareddi","India",71042,18.32,78.3418
"Bolpur","India",70998,23.6628,87.697
"Ranaghat","India",70984,23.1762,88.5667
"Fazilka","India",70887,30.4021,74.0284
"Beypore","India",70751,11.1715,75.8061
"Dadri","India",70609,28.5526,77.554
"Auraiya","India",70508,26.4652,79.5092
"Bapatla","India",70117,15.9042,80.4674
"Payyannur","India",70069,12.0935,75.2025
"Talipparamba","India",69878,12.0416,75.3593
"Tindivanam","India",69839,12.234,79.6555
"Shirpur","India",69540,21.3482,74.8803
"Basoda","India",69278,23.8515,77.9365
"Jorhat","India",69033,26.7575,94.2031
"Sindhnur","India",68793,15.7698,76.7558
"Bargarh","India",68670,21.3335,83.619
"Washim","India",68622,20.1113,77.133
"Visnagar","India",68619,23.6985,72.5521
"Palwancha","India",68561,17.5815,80.6765
"Keshod","India",68518,21.3033,70.2486
"Kannangad","India",68450,12.3081,75.1063
"Bisalpur","India",68355,28.2925,79.8047
"Tanuku","India",68290,16.7544,81.6814
"Attili","India",68196,16.7,81.6
"Balotra","India",68120,25.8324,72.24
"Pithampur","India",68051,22.602,75.6965
"Munnar","India",68000,10.0882,77.0624
"Chamrajnagar","India",67992,11.9231,76.9395
"Pattukkottai","India",67982,10.4236,79.3195
"Jaisalmer","India",67604,26.9176,70.9039
"Araria","India",67474,26.1493,87.5132
"Harda Khas","India",67387,22.3441,77.0954
"Sangamner","India",67309,19.5678,74.2115
"Jaora","India",67203,23.6378,75.1271
"Buldana","India",66991,20.5293,76.1846
"Mettupalayam","India",66944,11.2997,76.9349
"Anjar","India",66888,23.1132,70.0267
"Bellampalli","India",66660,19.0558,79.493
"Channapatna","India",66647,12.6514,77.2067
"Ratangarh","India",66625,28.0814,74.6185
"Krishnagiri","India",66419,12.5192,78.2138
"Rishikesh","India",66390,30.1078,78.2925
"Goyerkata","India",66358,26.6998,89.0257
"Chaibasa","India",66252,22.5504,85.8025
"Mandamarri","India",66176,18.9651,79.4747
"Palani","India",66085,10.4503,77.5209
"Narnaul","India",66049,28.0444,76.1083
"Dharmapuri","India",66017,12.1277,78.1579
"Fatehabad","India",66013,29.5152,75.4555
"Palasa","India",65833,18.7726,84.4101
"Basavakalyan","India",65805,17.8745,76.9497
"Chingleput","India",65689,12.6918,79.9766
"Chopda","India",65598,21.2458,75.2995
"Panaji","India",65586,15.4957,73.8262
"Thenkasi","India",65496,8.96003,77.3152
"Yadgir","India",65376,16.7701,77.1376
"Gangarampur","India",65316,25.4014,88.5298
"Ramanathapuram","India",65314,9.37158,78.8308
"Jagraon","India",65305,30.7878,75.4739
"Alipur Duar","India",65232,26.4835,89.5229
"Kopargaon","India",65116,19.8824,74.4761
"Bongaigaon","India",64902,26.477,90.5582
"Malkapur","India",64812,20.8855,76.1993
"Karanja","India",64734,20.4827,77.4886
"Khatauli","India",64731,29.2784,77.733
"Ashoknagar","India",64722,24.5758,77.7312
"Siuri","India",64659,23.9081,87.5277
"Nabha","India",64640,30.3758,76.1529
"Siddipet","India",64562,18.1048,78.8486
"Bhawanipatna","India",64468,19.9072,83.167
"Khopoli","India",64460,18.7856,73.3459
"Karwar","India",64457,14.8136,74.1297
"Kayankulam","India",64183,9.18173,76.5009
"Chinnachowk","India",64053,14.4752,78.8354
"Bishnupur","India",64041,23.0738,87.3199
"Markapur","India",63982,15.7353,79.2685
"Basmat","India",63972,19.3287,77.1575
"Baheri","India",63953,28.7742,79.4974
"Kunnamkulam","India",63903,10.6467,76.0669
"Raghogarh","India",63873,24.4432,77.1977
"Gopalganj","India",63725,26.4673,84.4404
"Tura","India",63645,25.5142,90.2024
"Rajsamand","India",63414,25.0714,73.8798
"Tandur","India",63239,17.2485,77.577
"Kalamassery","India",63176,10.0614,76.3263
"Suratgarh","India",63153,29.3215,73.8998
"Mannargudi","India",63148,10.6663,79.4506
"Sopur","India",63035,34.2867,74.4723
"Arni","India",62858,12.6677,79.2853
"Kannur","India",62836,11.8675,75.3576
"Dhuburi","India",62525,26.0186,89.9856
"Puliyangudi","India",62494,9.17489,77.398
"Sheopur","India",62416,25.6647,76.6962
"Renukut","India",62413,24.2164,83.0358
"Dhenkanal","India",62230,20.6574,85.5969
"Dabwali","India",62113,29.9491,74.7383
"Sibsagar","India",62104,26.9843,94.6378
"Malappuram","India",61743,11.042,76.0815
"Rath","India",61728,25.5947,79.5666
"Jamkhandi","India",61690,16.5046,75.2915
"Sirsi","India",61607,14.6207,74.8355
"Vriddhachalam","India",61498,11.5183,79.3241
"Vinukonda","India",61326,16.0531,79.7396
"Tiptur","India",60957,13.2563,76.4777
"Sahaswan","India",60953,28.0723,78.7508
"Koppal","India",60868,15.3452,76.1548
"Sirhind","India",60847,30.6432,76.3842
"Dabra","India",60836,25.8857,78.3322
"Cumbum","India",60828,9.73647,77.2847
"Arambagh","India",60639,22.8833,87.7833
"Himatnagar","India",60634,23.5989,72.966
"Ladnun","India",60490,27.6531,74.3999
"Nipani","India",60351,16.399,74.3829
"Borsad","India",60271,22.4079,72.8982
"Koratla","India",60231,18.8215,78.7119
"Kiratpur","India",60223,29.5067,78.2061
"Vrindavan","India",60195,27.5811,77.6966
"Haveri","India",60155,14.7935,75.4045
"Supaul","India",60020,26.1153,86.5951
"Giridih","India",60000,24.1862,86.3087
"Bangaon","India",60000,25.8673,86.5115
"Rayadrug","India",59968,14.6997,76.8524
"North Lakhimpur","India",59841,27.2352,94.1036
"Tohana","India",59749,29.7133,75.9044
"Gangoh","India",59519,29.78,77.2635
"Kottayam","India",59437,9.58692,76.5213
"Mangalagiri","India",59391,16.4308,80.5682
"Narasapur","India",59306,16.4342,81.6984
"Sangareddi","India",59199,17.6248,78.0867
"Kodar","India",59170,16.9985,79.9656
"Ullal","India",59116,12.8057,74.8606
"Mangrol","India",58989,21.1227,70.1148
"Gola Gokarannath","India",58986,28.0784,80.4705
"Modasa","India",58970,23.4625,73.2986
"Tezpur","India",58851,26.6333,92.8
"Thiruvarur","India",58777,10.7727,79.6368
"Attur","India",58702,11.5941,78.6014
"Chidambaram","India",58650,11.3993,79.6914
"Tarn Taran","India",58585,31.4519,74.9278
"Udumalaippettai","India",58571,10.5881,77.2478
"Lonavla","India",58562,18.7528,73.4057
"Shahada","India",58402,21.5454,74.4711
"Nawalgarh","India",58346,27.8516,75.2738
"Nedumangad","India",58278,8.60267,77.0014
"Nimbahera","India",58085,24.6217,74.68
"Kadi","India",58066,23.2991,72.3336
"Sira","India",57928,13.7416,76.9043
"Chik Ballapur","India",57831,13.4351,77.7279
"Bardoli","India",57810,21.123,73.1115
"Jhargram","India",57796,22.4538,86.995
"Samastipur","India",57575,25.8622,85.7795
"Gobichettipalayam","India",57527,11.455,77.4422
"Hasanpur","India",57481,28.7225,78.2844
"Jahangirabad","India",57363,28.4055,78.1059
"Sherkot","India",57361,29.327,78.5743
"Katras","India",57349,23.7975,86.2983
"Palakollu","India",57341,16.5167,81.73
"Wani","India",57288,20.0551,78.9531
"Naksalbari","India",57283,26.6827,88.22
"Tiruvalla","India",57223,9.3816,76.5749
"Ponnuru","India",57170,16.0655,80.552
"Diphu","India",57097,25.8434,93.4312
"Sitamarhi","India",57095,26.5936,85.4906
"Chhibramau","India",57071,27.1487,79.5008
"Tilhar","India",57043,27.9628,79.7383
"Ilkal","India",56937,15.9592,76.1135
"Bada Barabil","India",56870,22.1119,85.3868
"Mettur","India",56743,11.788,77.8008
"Kuchaman","India",56725,27.1474,74.8566
"Panruti","India",56586,11.7766,79.5527
"Una","India",56545,20.8232,71.0379
"Ponnur","India",56504,16.0711,80.5494
"Kollegal","India",56497,12.1545,77.1105
"Shegaon","India",56449,20.7932,76.6992
"Upleta","India",56354,21.7402,70.2826
"Ujhani","India",56309,28.0031,79.0082
"Bankra","India",56273,22.6029,88.2775
"Dabhoi","India",56253,22.1833,73.4333
"Bari","India",56136,26.6466,77.6163
"Obra","India",56110,24.4186,82.988
"Gohana","India",56093,29.1378,76.7025
"Jatani","India",56003,20.1597,85.7074
"Namakkal","India",55997,11.2213,78.1652
"Gadwal","India",55952,16.235,77.7956
"Palitana","India",55913,21.5252,71.8231
"Nokha","India",55911,27.5616,73.4714
"Laharpur","India",55911,27.7083,80.9026
"Narwana","India",55850,29.599,76.1193
"Islampur","India",55691,26.2654,88.1898
"Karad","India",55663,17.2894,74.1818
"Jalaun","India",55299,26.1451,79.3366
"Karimganj","India",55290,24.8692,92.3554
"Mokameh","India",55203,25.3966,85.9219
"Etawa","India",55185,24.1835,78.2029
"Wanparti","India",55182,16.3674,78.0689
"Samalkot","India",55097,17.0567,82.1764
"Anjangaon","India",54999,21.1652,77.3091
"Dholka","India",54977,22.7273,72.4413
"Tirur","India",54934,10.9137,75.9212
"Kandi","India",54848,23.9595,88.0402
"Ghatal","India",54658,22.6624,87.734
"Unjha","India",54620,23.8037,72.391
"Sendhwa","India",54530,21.6856,75.0962
"Tiruttangal","India",54499,9.48333,77.8333
"Siddhapur","India",54313,23.9178,72.3721
"Dhuri","India",54302,30.3685,75.8679
"Sidhi","India",54242,24.4038,81.8795
"Wokha","India",54010,26.0972,94.2582
"Kalna","India",53964,23.2194,88.363
"Baramati","India",53919,18.1517,74.5777
"Kandukur","India",53662,15.2154,79.9039
"Sunam","India",53647,30.1288,75.7994
"Gaddi Annaram","India",53622,17.3669,78.5242
"Sattenapalle","India",53603,16.3938,80.1522
"Hiriyur","India",53519,13.9445,76.6172
"Challakere","India",53506,14.318,76.6516
"Rampur Hat","India",53468,24.1774,87.7828
"Masaurhi Buzurg","India",53440,25.3542,85.032
"Nuzvid","India",53391,16.7885,80.8459
"Shajapur","India",53346,23.4264,76.2777
"Puttur","India",53331,12.7598,75.2017
"Kasaragod","India",53309,12.4984,74.9896
"Ajodhya","India",53293,26.7991,82.2047
"Mubarakpur","India",53263,26.0887,83.2909
"Phaltan","India",53202,17.9911,74.4318
"Sandila","India",53182,27.0699,80.515
"Sagar","India",53150,14.165,75.029
"Lohardaga","India",53032,23.4331,84.6799
"Deolali","India",52958,19.944,73.8344
"Shahabad","India",52952,17.1307,76.9436
"Bobbili","India",52843,18.5737,83.3593
"Chikhli","India",52841,20.3505,76.2577
"Konch","India",52773,25.9945,79.1513
"Lunglei","India",52728,22.8925,92.7422
"Pithapuram","India",52709,17.1168,82.2528
"Amalapuram","India",52690,16.5787,82.0061
"Tuni","India",52658,17.3591,82.5461
"Sihor","India",52603,21.7113,71.9618
"Diglur","India",52596,18.5483,77.577
"Barbil","India",52586,22.1019,85.3775
"Biswan","India",52516,27.4958,80.9962
"Kosi","India",52492,27.7945,77.4368
"Ropar","India",52313,30.969,76.5269
"Dandeli","India",52295,15.2667,74.6167
"Parvatipuram","India",52085,18.7839,83.4257
"Arcot","India",51943,12.9057,79.319
"Jhalawar","India",51884,24.5963,76.165
"Petlad","India",51819,22.4768,72.7999
"Umred","India",51794,20.854,79.3247
"Bhatapara","India",51751,21.735,81.9471
"Kaliyaganj","India",51748,25.6344,88.3267
"Nasirabad","India",51747,26.3047,74.7336
"Idappadi","India",51642,11.5862,77.8389
"Gohadi","India",51635,26.4328,78.442
"Khagaul","India",51577,25.579,85.0456
"Chiplun","India",51437,17.5334,73.5094
"Changanacheri","India",51430,9.44203,76.536
"Ramnagar","India",51244,29.3925,79.1283
"Sillod","India",51042,20.303,75.6528
"Macherla","India",51039,16.4764,79.4353
"Tundla","India",50939,27.2146,78.2368
"Mannarakkat","India",50921,10.9922,76.4642
"Ottappalam","India",50913,10.7735,76.3776
"Goalpara","India",50759,26.1767,90.6263
"Kankanhalli","India",50752,12.5465,77.4201
"Madhupur","India",50671,24.2742,86.6393
"Madhipura","India",50570,25.9213,86.7927
"Charkhi Dadri","India",50558,28.5917,76.2716
"Dumraon","India",50524,25.5527,84.1515
"Mahasamund","India",50441,21.1074,82.0948
"Gajraula","India",50380,28.8457,78.2396
"Abu Road","India",50262,24.4801,72.7819
"Nanjangud","India",50243,12.1176,76.684
"Salur","India",50206,18.5172,83.2055
"Bhongir","India",50094,17.5154,78.8856
"Aonla","India",50011,28.274,79.1652
"Khagaria","India",49982,25.5022,86.4671
"Dhampur","India",49973,29.3088,78.5108
"Sardhana","India",49857,29.1455,77.6143
"Didwana","India",49852,27.401,74.5754
"Jalor","India",49682,25.3456,72.6156
"Rajgarh","India",49583,28.642,75.3861
"Barh","India",49557,25.4834,85.7093
"Baduria","India",49547,22.7443,88.7866
"Shorapur","India",49501,16.521,76.7574
"Jugsalai","India",49410,22.7767,86.1835
"Kizhake Chalakudi","India",49330,10.3007,76.3376
"Sidlaghatta","India",49114,13.389,77.8644
"Dahanu","India",49048,19.9678,72.7126
"Rasipuram","India",48950,11.4601,78.1863
"Punganuru","India",48865,13.3667,78.5719
"Mandapeta","India",48852,16.8625,81.9292
"Poonamalle","India",48837,13.0489,80.1149
"Barpeta","India",48824,26.3229,91.0063
"Tamluk","India",48646,22.3008,87.9259
"Bhabhua","India",48641,25.0405,83.6075
"Kathua","India",48551,32.3694,75.5254
"Nangal","India",48497,31.3897,76.3757
"Nihtaur","India",48389,29.3242,78.3872
"Lachhmangarh Sikar","India",48142,27.8229,75.0275
"Tiruvallur","India",48095,13.1438,79.9089
"Sri Dungargarh","India",48036,28.0962,74.0087
"Raxaul","India",47965,26.9798,84.8506
"Siruguppa","India",47917,15.63,76.8922
"Baruipur","India",47874,22.3525,88.4388
"Mandvi","India",47853,22.8328,69.3524
"Majalgaon","India",47845,19.1599,76.2083
"Warud","India",47817,21.471,78.2697
"Wankaner","India",47814,22.612,70.9438
"Churachandpur","India",47774,24.3335,93.67
"Dumka","India",47663,24.2678,87.2486
"Talegaon Dabhade","India",47653,18.735,73.6756
"Hunsur","India",47644,12.3036,76.2927
"Pithoragarh","India",47571,29.5835,80.2095
"Jangaon","India",47558,17.726,79.1524
"Atrauli","India",47512,28.0296,78.2857
"Narsimhapur","India",47511,22.9494,79.1836
"Mulbagal","India",47462,13.1635,78.3935
"Mudhol","India",47427,16.3335,75.2831
"Gudalur","India",47419,9.67826,77.2495
"Barwani","India",47343,22.0323,74.8998
"Jodhpur","India",47329,21.9017,70.0327
"Punalur","India",47263,9.01956,76.9226
"Padrauna","India",47181,26.904,83.9809
"Gumia","India",47121,23.7975,85.8252
"Bail-Hongal","India",47063,15.8137,74.8589
"Shujalpur","India",47058,23.4067,76.7098
"Jaisingpur","India",46942,16.7764,74.5536
"Chatra","India",46844,24.2064,84.8708
"Pachora","India",46823,20.6673,75.3531
"Patancheru","India",46821,17.5333,78.2645
"Panna","India",46791,24.7209,80.1877
"Phalodi","India",46788,27.131,72.3683
"Yeola","India",46762,20.0424,74.4894
"Sheikhpura","India",46718,25.1399,85.841
"Gulaothi","India",46647,28.5894,77.7932
"Seohara","India",46546,29.209,78.5884
"Zahirabad","India",46504,17.6814,77.6074
"Karsiyang","India",46427,26.8825,88.2773
"Manglaur","India",46395,29.7909,77.8784
"Gangakher","India",46366,18.9696,76.7495
"Nohar","India",46360,29.1829,74.7706
"Ganj Dundwara","India",46314,27.7331,78.9412
"Nanpara","India",46280,27.8646,81.5004
"Atarra","India",46168,25.2862,80.5715
"Teghra","India",46160,25.4904,85.94
"Bhaisa","India",46120,19.1129,77.9634
"Dondaicha","India",46018,21.3236,74.568
"Vite","India",45973,17.2734,74.5379
"Peddapuram","India",45967,17.077,82.1384
"Mahmudabad","India",45921,27.2919,81.1178
"Pakur","India",45840,24.6392,87.8424
"Cherthala","India",45827,9.68444,76.3356
"Nayudupet","India",45769,13.9074,79.8947
"Halol","India",45741,22.5032,73.4724
"Kharar","India",45691,30.7463,76.6469
"Bhadrachalam","India",45656,17.6685,80.8889
"Rampura","India",45639,30.256,75.2412
"Mattanur","India",45521,11.9302,75.5715
"Shertallai","India",45474,9.68581,76.34
"Sironj","India",45455,24.1031,77.6906
"Daund","India",45440,18.4652,74.5837
"Parlakimidi","India",45379,18.7811,84.0884
"Pujali","India",45379,22.4711,88.1453
"Ashta","India",45365,23.0175,76.7221
"Nandikotkur","India",45343,15.8567,78.2657
"Khalilabad","India",45321,26.7727,83.0718
"Chittaranjan","India",45305,23.8568,86.9032
"Pathardih","India",45276,23.6658,86.4317
"Dungarpur","India",45195,23.8431,73.7147
"Mandla","India",45184,22.5988,80.3711
"Forbesganj","India",45098,26.3025,87.2656
"Harpanahalli","India",44977,14.7877,75.9886
"Itanagar","India",44971,27.0869,93.6099
"Gumla","India",44951,23.0427,84.5443
"Ozar","India",44935,20.0947,73.9282
"Bhimunipatnam","India",44843,17.8902,83.452
"Tanda","India",44822,28.9762,78.9419
"Kapadvanj","India",44764,23.023,73.0711
"Thoubal","India",44493,24.6388,93.9964
"Morar","India",44451,26.2264,78.2248
"Memari","India",44448,23.1765,88.0975
"Nellikkuppam","India",44423,11.7755,79.6702
"Angul","India",44386,20.8409,85.1019
"Medak","India",44351,18.0453,78.2608
"Kalpi","India",44339,26.1167,79.7333
"Hodal","India",44300,27.892,77.3674
"Ramnagar","India",44277,25.2691,83.0297
"Arsikere","India",44269,13.3145,76.257
"Nidadavole","India",44173,16.9057,81.6722
"Jhajjar","India",44122,28.6063,76.6565
"Varangaon","India",44067,21.0177,75.9104
"Jammalamadugu","India",43870,14.8468,78.3831
"Jasdan","India",43861,22.0371,71.2079
"Kendraparha","India",43843,20.5017,86.4223
"Gobardanga","India",43808,22.8774,88.7548
"Yellandu","India",43787,17.5906,80.3215
"Merta","India",43758,26.6486,74.0341
"Polavaram","India",43710,17.2475,81.6437
"Kanuru","India",43696,16.2858,81.2546
"Godda","India",43658,24.827,87.2125
"Kotputli","India",43651,27.7021,76.1991
"Pandhurna","India",43630,21.5956,78.5263
"Ramnagar","India",43497,27.1637,84.3234
"Dig","India",43486,27.4719,77.3256
"Kandhla","India",43387,29.321,77.271
"Vikarabad","India",43337,17.3381,77.9044
"Varkala","India",43276,8.7333,76.7167
"Saint Thomas Mount","India",43223,13.0033,80.1961
"Sainthia","India",43221,23.9483,87.6805
"Tumsar","India",43218,21.3833,79.7333
"Peranampattu","India",43124,12.9343,78.7189
"Barhiya","India",43045,25.2881,86.0206
"Kalimpong","India",43000,27.0706,88.4753
"Ramachandrapuram","India",42977,16.8364,82.0287
"Repalle","India",42967,16.0184,80.8296
"Selu","India",42879,19.4551,76.4407
"Bhinmal","India",42863,24.9994,72.2714
"Bowringpet","India",42789,12.9912,78.178
"Sivaganga","India",42785,9.84701,78.4836
"Tirupparangunram","India",42696,9.88151,78.0731
"Shoranur","India",42694,10.7618,76.2708
"Bikramganj","India",42626,25.2107,84.2551
"Sojat","India",42556,25.9249,73.6663
"Khurda","India",42526,20.1827,85.6163
"Jaspur","India",42524,29.2792,78.828
"Than","India",42508,22.5742,71.1994
"Jintur","India",42420,19.6119,76.6874
"Khekra","India",42408,28.8659,77.2841
"Balapur","India",42401,20.6661,76.7739
"Dinhata","India",42381,26.1353,89.4613
"Naini Tal","India",42309,29.3974,79.4469
"Kyathampalle","India",42275,19.6678,78.5289
"Sikandra Rao","India",42229,27.6886,78.3799
"Palmaner","India",42179,13.2,78.7473
"Jajpur","India",42157,20.8485,86.3373
"Canning","India",42132,22.3145,88.6625
"Khairabad","India",42125,27.527,80.7546
"Kannad","India",42056,20.2568,75.1379
"Athni","India",42047,16.7261,75.0642
"Biaora","India",41989,23.9205,76.9107
"Katol","India",41893,21.2739,78.5858
"Arvi","India",41837,20.9958,78.2291
"Baghpat","India",41766,28.9449,77.2187
"Bar Bigha","India",41758,25.2185,85.7332
"Limbdi","India",41740,22.5651,71.8108
"Bilara","India",41710,26.1807,73.7055
"Sundargarh","India",41705,22.1167,84.0333
"Manvi","India",41647,15.9913,77.0503
"Fatwa","India",41647,25.5096,85.305
"Jambusar","India",41594,22.0524,72.8007
"Devakottai","India",41568,9.94704,78.8233
"Digras","India",41554,20.1035,77.7185
"Warora","India",41523,20.2288,79.0028
"Homnabad","India",41485,17.7707,77.1252
"Gadarwara","India",41420,22.9235,78.7849
"Chidawa","India",41319,28.2394,75.6404
"Champa","India",41252,22.0353,82.6423
"Naugachhia","India",41247,25.3881,87.0991
"Hoskote","India",41236,13.0707,77.7981
"Daudnagar","India",41236,25.0347,84.4009
"Sihora","India",41192,23.4871,80.104
"Jaggayyapeta","India",41180,16.8938,80.0981
"Koraput","India",41170,18.812,82.7105
"Dhupgari","India",41168,26.589,89.0073
"Mehekar","India",41137,20.1505,76.5684
"Hilsa","India",41110,25.3164,85.2823
"Bharthana","India",41055,26.7523,79.2218
"Raisen","India",40977,23.3303,77.7811
"Jalarpet","India",40959,12.5702,78.5732
"Burla","India",40816,21.5098,83.8726
"Dahegam","India",40671,23.169,72.8216
"Garhwa","India",40662,24.16,83.8075
"Chakradharpur","India",40599,22.6761,85.6289
"Ambah","India",40523,26.7042,78.2268
"Kallakkurichchi","India",40449,11.7404,78.959
"Ghatampur","India",40435,26.1527,80.168
"Akividu","India",40413,16.5823,81.3811
"Kovvur","India",40379,17.0162,81.7293
"Solan","India",40283,30.9091,77.1087
"Murtajapur","India",40223,20.733,77.3669
"Ahmadpur","India",40218,18.7062,76.9373
"Gursahaiganj","India",40214,27.1152,79.7317
"Periyakulam","India",40131,10.1227,77.5437
"Mapuca","India",40122,15.5915,73.809
"Taki","India",40113,22.5887,88.9325
"Diamond Harbour","India",40095,22.193,88.1847
"Saundatti","India",40091,15.7662,75.1178
"Vaijapur","India",40043,19.9267,74.7275
"Ghatsila","India",40018,22.5853,86.4768
"Hasimara","India",40000,26.7469,89.3539
"Sathupalli","India",40000,17.2497,80.869
"Puranpur","India",39988,28.5128,80.1483
"Haflong","India",39982,25.1648,93.0174
"Rameswaram","India",39960,9.2885,79.3127
"Bansi","India",39926,27.1775,82.9344
"Thiruthani","India",39899,13.1759,79.6164
"Mandideep","India",39898,23.0817,77.5333
"Bilaspur","India",39873,28.8866,79.2703
"Thakurdwara","India",39860,29.192,78.8615
"Farrukhnagar","India",39766,17.0779,78.2034
"Bhavani","India",39744,11.4455,77.6822
"Daman","India",39737,20.4143,72.8324
"Dhone","India",39689,15.3952,77.8715
"Nandura Buzurg","India",39650,20.8342,76.4592
"Murshidabad","India",39557,24.1839,88.2717
"Nadapuram","India",39512,11.6847,75.6549
"Parasia","India",39440,22.1913,78.759
"Nathdwara","India",39426,24.938,73.8239
"Shahabad","India",39323,30.1678,76.8705
"Giddarbaha","India",39243,30.1995,74.6663
"Akalkot","India",39226,17.5253,76.2061
"Aroor","India",39214,9.8694,76.305
"Chinnamanur","India",39213,9.83999,77.3811
"Ghosi","India",39138,26.1059,83.5393
"Amudalavalasa","India",39124,18.4102,83.9029
"Pehowa","India",39101,29.979,76.5825
"Nurpur","India",39077,29.1496,78.4084
"Aland","India",39064,17.5643,76.5685
"Narayanpet","India",39041,16.748,77.4954
"Paravur Tekkumbhagam","India",38946,8.7947,76.668
"Banka","India",38939,24.8809,86.9226
"Simdega","India",38732,22.6152,84.5021
"Kondapalle","India",38714,16.6199,80.5424
"Sangaria","India",38638,29.7989,74.4668
"Jha-Jha","India",38624,24.7711,86.3789
"Jalesar","India",38614,27.4732,78.3031
"Sirohi","India",38610,24.8884,72.8479
"Bhalki","India",38583,18.0435,77.206
"Palia Kalan","India",38547,28.4321,80.5814
"Talcher","India",38436,20.9493,85.2335
"Chaklasi","India",38435,22.6532,72.945
"Kunnamangalam","India",38372,11.3046,75.8777
"Rajgir","India",38348,25.0283,85.4208
"Kumhari","India",38334,21.2667,81.5167
"Pathanamthitta","India",38285,9.26667,76.7833
"Nandigama","India",38219,16.7717,80.286
"Mahe","India",38183,11.7017,75.5347
"Vyara","India",38168,21.1108,73.3936
"Malavalli","India",38129,12.3856,77.0604
"Khambhaliya","India",38121,22.2069,69.6503
"Suluru","India",38065,13.7,80.0167
"Bhawaniganj","India",38030,24.4158,75.8355
"Chetwayi","India",38011,10.5288,76.0479
"Vetapalem","India",38007,15.785,80.3066
"Shahbazpur","India",38000,26.3051,87.2887
"Mahbubabad","India",37949,17.5973,80.0021
"Maihar","India",37913,24.2659,80.7606
"Dibai","India",37873,28.2085,78.2617
"Robertsganj","India",37855,24.6886,83.0678
"Kekri","India",37850,25.9713,75.1499
"Tarikere","India",37848,13.7095,75.8138
"Maudaha","India",37844,25.6831,80.1142
"Porsa","India",37824,26.6744,78.3708
"Savanur","India",37819,14.9733,75.3372
"Pratapgarh","India",37780,24.0322,74.7816
"Bilasipara","India",37739,26.2328,90.2341
"Channarayapatna","India",37681,12.9064,76.3877
"Ellenabad","India",37680,29.4528,74.6612
"Pathri","India",37648,19.2588,76.4341
"Bhadra","India",37629,29.103,75.1714
"Bantval","India",37619,12.8905,75.0349
"Kotamangalam","India",37543,10.0644,76.6284
"Leh","India",37475,34.165,77.584
"Bairagnia","India",37465,26.7406,85.2732
"Bangarmau","India",37425,26.8912,80.2115
"Paithan","India",37360,19.4751,75.3856
"Barauli","India",37302,26.3811,84.5865
"Sadaseopet","India",37245,17.6192,77.9526
"Vettur","India",37219,8.71742,76.7258
"Patti","India",37087,31.2809,74.8585
"Garhmuktesar","India",37043,28.7873,78.1021
"Revelganj","India",37031,25.7898,84.636
"Parola","India",37001,20.881,75.1194
"Manapparai","India",36926,10.6077,78.4258
"Yanam","India",36896,16.7331,82.2136
"Rahuri","India",36885,19.3907,74.6498
"Rawatbhata","India",36872,24.9298,75.5921
"Hojai","India",36869,26.0028,92.856
"Akbarpur","India",36865,26.4295,82.5343
"Vuyyuru","India",36755,16.3631,80.8441
"Pilibangan","India",36755,29.4496,74.1009
"Barwala","India",36694,29.3675,75.9081
"Anekal","India",36693,12.7111,77.6956
"Kampli","India",36641,15.4063,76.6001
"Phulbani","India",36613,20.481,84.2306
"Attingal","India",36595,8.69609,76.8151
"Cheyyar","India",36527,12.6605,79.5431
"Padra","India",36499,22.2398,73.0845
"Chunar","India",36459,25.1278,82.8821
"Sanawad","India",36455,22.1739,76.0699
"Bayana","India",36399,26.9079,77.2898
"Kayalpattinam","India",36175,8.57143,78.1199
"Dhaka","India",36111,26.6748,85.167
"Sadabad","India",36093,27.4382,78.0376
"Bindki","India",36058,26.0361,80.5762
"Dwarka","India",35837,22.2394,68.9678
"Sarangpur","India",35827,23.5665,76.4731
"Daryapur","India",35782,20.9249,77.3264
"Ramganj Mandi","India",35754,24.6465,75.9433
"Gariadhar","India",35692,21.5389,71.5774
"Kakrala","India",35690,27.8927,79.1945
"Arantangi","India",35621,10.1723,78.9912
"Samalkha","India",35620,29.2355,77.0127
"Kovur","India",35600,14.5005,79.9852
"Tuljapur","India",35596,18.008,76.0701
"Morsi","India",35554,21.3403,78.0126
"Babina","India",35538,25.2395,78.4703
"Dongargarh","India",35508,21.1889,80.7546
"Ashta","India",35497,16.9494,74.4094
"Igatpuri","India",35461,19.6952,73.5626
"Radhanpur","India",35457,23.8324,71.6047
"Budhana","India",35442,29.288,77.4753
"Lunavada","India",35431,23.1284,73.6104
"Betamcherla","India",35417,15.4514,78.148
"Rajpipla","India",35392,21.8667,73.5
"Barpeta Road","India",35281,26.5028,90.9694
"Sherghati","India",35279,24.5595,84.7916
"Umarkhed","India",35265,19.6014,77.6888
"Waris Aliganj","India",35243,25.0172,85.6405
"Pulgaon","India",35238,20.722,78.3206
"Kawardha","India",35238,22.0085,81.2315
"Buddh Gaya","India",35188,24.6981,84.9869
"Lakshmeshwar","India",35140,15.1269,75.4694
"Atmakur","India",35137,15.8811,78.587
"Seram","India",35134,17.1786,77.29
"Niwai","India",35114,26.3607,75.9184
"Dubrajpur","India",35087,23.7902,87.3765
"Jalalabad","India",35051,27.7262,79.6552
"Sanand","India",35033,22.9923,72.3818
"Kodaikanal","India",35021,10.2393,77.4893
"Chikodi","India",34984,16.429,74.5859
"Shahabad","India",34962,28.5668,79.0096
"Tasgaon","India",34933,17.037,74.6017
"Kodinar","India",34930,20.7939,70.7022
"Kichha","India",34904,28.9115,79.5201
"Purna","India",34888,19.1817,77.0257
"Jamadoba","India",34774,23.7167,86.4
"Nabagram","India",34728,22.2881,88.5092
"Rajula","India",34652,21.0385,71.4435
"Shikarpur","India",34649,28.2807,78.0141
"Pipar","India",34630,26.3844,73.5439
"Sagauli","India",34622,26.7639,84.7434
"Kattivakkam","India",34595,13.2167,80.3167
"Karjat","India",34554,18.9107,73.3235
"Sankeshwar","India",34549,16.2565,74.4819
"Bakhtiyarpur","India",34533,25.4618,85.5318
"Agar","India",34532,23.7118,76.0157
"Nilanga","India",34491,18.1168,76.7528
"Satana","India",34440,20.5948,74.203
"Patamundai","India",34400,20.5781,86.5606
"Angamali","India",34399,10.1905,76.3879
"Golaghat","India",34372,26.5117,93.9595
"Manipal","India",34370,13.35,74.7833
"Tadepalle","India",34357,16.4833,80.6
"Jaito","India",34346,30.4513,74.8919
"Gharaunda","India",34307,29.5369,76.9714
"Kodungallur","India",34210,10.2326,76.1951
"Ausa","India",34161,18.2473,76.4993
"Hamirpur","India",34144,25.9553,80.1484
"Jhabua","India",34135,22.7677,74.5909
"Nawabganj","India",34134,28.541,79.6346
"Sinnar","India",34095,19.8451,73.9987
"Pen","India",34092,18.7373,73.096
"Indi","India",34075,17.1773,75.9526
"Pappinissheri","India",34025,11.9565,75.3403
"Mokokchung","India",34021,26.3248,94.5183
"Sathyamangalam","India",34011,11.5053,77.2383
"Fatehpur","India",34010,27.1728,81.2106
"Guledagudda","India",33851,16.0502,75.79
"Melur","India",33839,10.0324,78.3393
"Bhiwadi","India",33831,28.2102,76.8606
"Guskhara","India",33780,23.4928,87.7348
"Sindgi","India",33770,16.9188,76.2337
"Narsipatnam","India",33755,17.6671,82.6124
"Ichchapuram","India",33754,19.1139,84.6872
"Bahjoi","India",33752,28.395,78.6266
"Tuensang","India",33748,26.267,94.8242
"Dharangaon","India",33718,21.0119,75.2741
"Pulivendla","India",33615,14.4214,78.225
"Peddapalli","India",33582,18.6136,79.3744
"Madikeri","India",33540,12.426,75.7382
"Kopaganj","India",33539,26.0192,83.5663
"Kaman","India",33524,27.6579,77.2691
"Thana Bhawan","India",33498,29.5861,77.4181
"Uravakonda","India",33495,14.9435,77.2549
"Begamganj","India",33467,23.5992,78.3406
"Darsi","India",33418,15.7698,79.6794
"Erattupetta","India",33408,9.68747,76.7789
"Nargund","India",33403,15.723,75.3867
"Zaidpur","India",33397,26.8309,81.3293
"Amli","India",33369,20.2833,73.0167
"Sohna","India",33361,28.2474,77.0654
"Anupgarh","India",33309,29.1911,73.2086
"Jogbani","India",33300,26.399,87.2653
"Shikarpur","India",33273,14.2698,75.3564
"Shahpura","India",33273,27.3912,75.9596
"Kunigal","India",33273,13.0232,77.0252
"Kosamba","India",33221,21.462,72.9584
"Muhammadabad","India",33186,25.6191,83.7558
"Lakhyabad","India",33162,23.6667,86.6667
"Jhalrapatan","India",33121,24.542,76.1724
"Sirkazhi","India",33100,11.2373,79.7358
"Chaksu","India",33098,26.6051,75.9481
"Porur","India",33060,13.0357,80.1582
"Bhadasar","India",33006,28.3146,74.2895
"Wai","India",32957,17.9528,73.8906
"Jagatsinghapur","India",32945,20.2557,86.1711
"Bagasra","India",32944,21.4872,70.9552
"Kadur","India",32935,13.5528,76.0116
"Dharmanagar","India",32912,24.3667,92.1667
"Lahar","India",32886,26.194,78.9414
"Yaval","India",32881,21.1677,75.6976
"Kaimganj","India",32858,27.5544,79.3353
"Janjgir","India",32833,22.0092,82.5778
"Egra","India",32832,21.8995,87.5379
"Bihariganj","India",32805,25.7341,86.9884
"Umreth","India",32802,22.6988,73.1156
"Venkatagiri","India",32761,13.96,79.5803
"Mushabani","India",32761,22.5114,86.4571
"Mahalingpur","India",32699,16.3888,75.1087
"Neem ka Thana","India",32690,27.7398,75.7865
"Nepanagar","India",32611,21.4538,76.3933
"Nautanwa","India",32587,27.4275,83.4179
"Vallabh Vidyanagar","India",32581,22.5333,72.9
"Chanderi","India",32549,24.7131,78.1381
"Manuguru","India",32539,17.981,80.7547
"Mahemdavad","India",32504,22.8236,72.7555
"Goribidnur","India",32447,13.6107,77.5174
"Almora","India",32442,29.5971,79.6591
"Nakodar","India",32405,31.1259,75.4751
"Karamsad","India",32380,22.5424,72.9039
"Manali","India",32363,13.1667,80.2667
"Dharmabad","India",32351,18.8912,77.8494
"Vedaraniyam","India",32245,10.3721,79.851
"Jayamkondacholapuram","India",32217,11.2127,79.3637
"Kalka","India",32205,30.8398,76.9407
"Umarga","India",32181,17.8384,76.6233
"Pinjaur","India",32162,30.7987,76.9182
"Bisauli","India",32154,28.3077,78.9368
"Turaiyur","India",32134,11.1497,78.5987
"Pavugada","India",32063,14.0995,77.2802
"Ambasamudram","India",32020,8.71068,77.4519
"Zamania","India",32008,25.4196,83.5579
"Malkapur","India",32000,17.2621,74.1757
"Shirdi","India",31978,19.7662,74.4774
"Bandipura","India",31978,34.4173,74.6431
"Kokrajhar","India",31971,26.4011,90.2729
"Palladam","India",31935,10.9917,77.2863
"Muddebihal","India",31895,16.3378,76.1317
"Lalganj","India",31879,25.8689,85.1739
"Rasra","India",31876,25.8576,83.8549
"Islampur","India",31875,25.1408,85.2059
"Ghugus","India",31859,19.9381,79.1119
"Sattur","India",31856,9.35592,77.9246
"Basudebpur","India",31827,21.1197,86.729
"Khachrod","India",31825,23.4232,75.2819
"Kotma","India",31756,23.2038,81.979
"Bhatkal","India",31735,13.9853,74.5553
"Khurai","India",31613,24.0437,78.3301
"Chittur","India",31608,10.6997,76.7471
"Vadigenhalli","India",31558,13.2972,77.8018
"Sijua","India",31537,23.7762,86.3303
"Vandavasi","India",31530,12.5043,79.6056
"Lalsot","India",31480,26.5595,76.3291
"Shahpur","India",31422,16.6961,76.8422
"Chemmumiahpet","India",31416,15.8979,79.3213
"Bahadurganj","India",31405,26.2617,87.8244
"Gomoh","India",31395,23.8736,86.1516
"Jalalpur","India",31388,26.3116,82.7386
"Khunti","India",31366,23.076,85.2782
"Kangayam","India",31364,11.006,77.5609
"Zira","India",31350,30.9685,74.9911
"Jhanjharpur","India",31283,26.2647,86.2799
"Sangola","India",31279,17.4395,75.1938
"Singanallur","India",31239,10.999,77.0324
"Karamadai","India",31188,11.2406,76.9601
"Ramapuram","India",31169,13.1009,79.1841
"Nawanshahr","India",31121,31.1245,76.1161
"Mankachar","India",31091,25.5335,89.8637
"Razampeta","India",31079,14.1954,79.159
"Sabalgarh","India",31032,26.2492,77.4079
"Hailakandi","India",31031,24.6839,92.561
"Jagdispur","India",31029,25.4681,84.4194
"Jagdishpur","India",31029,26.7497,80.5451
"Sirur","India",31018,18.8276,74.3747
"Rawatsar","India",31016,29.2672,74.4029
"Shamsabad","India",31009,27.0172,78.1236
"Partur","India",30991,19.5993,76.2154
"Puttur","India",30986,13.4419,79.5531
"Guduvancheri","India",30972,12.8452,80.0605
"Erandol","India",30931,20.9221,75.3264
"Pasan","India",30928,22.8441,82.1982
"Rudarpur","India",30873,26.4447,83.613
"Safidon","India",30863,29.406,76.6704
"Hatta","India",30854,24.1341,79.6012
"Elur","India",30832,10.0667,76.2833
"Basavana Bagevadi","India",30827,16.5728,75.9725
"Perambalur","India",30799,11.2333,78.8833
"Gangtok","India",30700,27.3257,88.6122
"Malur","India",30677,13.0032,77.938
"Usilampatti","India",30675,9.96936,77.7862
"Un","India",30671,23.8874,71.7698
"Mudbidri","India",30632,13.0665,74.9952
"Rajakhera","India",30627,26.898,78.171
"Manwat","India",30624,19.3013,76.4974
"Wadi","India",30602,17.0518,76.9905
"Anta","India",30598,25.15,76.3
"Maharaganj","India",30548,27.1446,83.5621
"Tarakeswar","India",30475,22.886,88.0136
"Keelakarai","India",30468,9.23183,78.7855
"Kakching","India",30418,24.4982,93.9813
"Gevrai","India",30406,19.2637,75.7501
"Pihani","India",30369,27.6199,80.2034
"Perungudi","India",30363,12.9609,80.2409
"Sarkhej","India",30341,22.983,72.502
"Remuna","India",30319,21.528,86.8716
"Sri Madhopur","India",30281,27.466,75.5974
"Udaipur","India",30264,27.723,75.4718
"Walajapet","India",30256,12.9251,79.3663
"Pedana","India",30252,16.2558,81.1438
"Ferokh","India",30229,11.1799,75.8414
"Salaya","India",30228,22.3104,69.6038
"Musiri","India",30209,10.953,78.4443
"Khair","India",30173,27.9419,77.8424
"Chitapur","India",30139,17.1236,77.0824
"Risod","India",30131,19.9767,76.788
"Dhandhuka","India",30049,22.3818,71.9866
"Fatehpur Sikri","India",30026,27.0937,77.66
"Birpara","India",30000,26.7042,89.1455
"Yanamalakuduru","India",30000,16.4853,80.6675
"Cherpulassery","India",30000,10.8765,76.3093
"Amla","India",29995,21.9249,78.1279
"Narsinghgarh","India",29981,23.7076,77.0932
"Talaja","India",29948,21.3527,72.0352
"Dharmadam","India",29943,11.7754,75.4646
"Bhongaon","India",29911,27.2551,79.1812
"Tiruchchendur","India",29872,8.49725,78.1191
"Sasvad","India",29858,18.3435,74.031
"Ambad","India",29846,19.613,75.7891
"Ramgarh","India",29834,27.251,75.1789
"Jalalabad","India",29824,30.6062,74.2573
"Soro","India",29797,21.2785,86.6883
"Lingsugur","India",29783,16.1588,76.5217
"Gajendragarh","India",29749,15.7363,75.9698
"Madurantakam","India",29743,12.5117,79.8848
"Umaria","India",29740,23.5247,80.8372
"Devarkonda","India",29726,16.6919,78.9207
"Dhamnod","India",29681,22.2093,75.4706
"Bilari","India",29666,28.6215,78.8036
"Muvattupula","India",29664,9.98493,76.5773
"Adur","India",29652,9.15595,76.7319
"Saoner","India",29638,21.3851,78.9215
"Raisinghnagar","India",29626,29.5358,73.4492
"Miranpur Katra","India",29626,28.0296,79.6678
"Kalpatta","India",29602,11.6087,76.0834
"Arangaon","India",29591,19.0268,74.7149
"Kalavoor","India",29564,9.57046,76.3276
"Mansa","India",29551,23.4256,72.6574
"Zunheboto","India",29499,25.9667,94.5167
"Mainaguri","India",29459,26.5626,88.8204
"Nagar Karnul","India",29439,16.4821,78.3247
"Khedbrahma","India",29402,24.0299,73.0463
"Taranagar","India",29392,28.6686,75.0321
"Palkonda","India",29378,18.6037,83.7557
"Dhari","India",29346,21.3286,71.0265
"Jewar","India",29316,28.122,77.5573
"Kalyandurg","India",29272,14.5452,77.1055
"Dighwara","India",29270,25.7443,85.01
"Shahpura","India",29259,25.6209,74.9249
"Muvattupuzha","India",29246,9.97985,76.5738
"Bachhraon","India",29232,28.9269,78.2346
"Irinjalakuda","India",29208,10.3424,76.2112
"Mangrul Pir","India",29198,20.3138,77.3418
"Madukkarai","India",29144,10.9057,76.9634
"Islamnagar","India",29144,28.329,78.7252
"Ariyalur","India",29144,11.1385,79.0756
"Ponmana","India",29139,9.00798,76.5202
"Manavadar","India",29105,21.4981,70.1377
"Sirsaganj","India",29034,27.0571,78.6866
"Sanchor","India",29022,24.7536,71.7728
"Sandur","India",29016,15.0861,76.5469
"Chodavaram","India",29000,17.8288,82.9353
"Surandai","India",28989,8.97574,77.4192
"Banda","India",28978,24.0449,78.9609
"Piro","India",28967,25.3322,84.4045
"Suar","India",28941,29.0284,79.0565
"Manoharpur","India",28928,27.2977,75.9495
"Rajura","India",28881,19.7795,79.3646
"Kotagiri","India",28848,11.4207,76.8604
"Rusera","India",28781,25.7535,86.026
"Nelamangala","India",28697,13.0998,77.3936
"Soron","India",28683,27.8906,78.7462
"Mukher","India",28647,18.7064,77.368
"Sholinghur","India",28645,13.1181,79.4202
"Gadhada","India",28611,21.9696,71.5783
"Malpura","India",28600,26.2838,75.3646
"Alangulam","India",28558,8.86404,77.4994
"Addanki","India",28547,15.8106,79.9734
"Milak","India",28505,28.6103,79.17
"Coondapoor","India",28491,13.6313,74.6902
"Lakheri","India",28463,25.6724,76.1769
"Lalgola","India",28442,24.4224,88.2524
"Utraula","India",28437,27.3193,82.4187
"Titlagarh","India",28405,20.2896,83.1523
"Tirukkoyilur","India",28337,11.9662,79.2026
"Sonamukhi","India",28334,23.3052,87.4134
"Seoni Malwa","India",28334,22.4505,77.4665
"Badami","India",28314,15.915,75.6768
"Mavoor","India",28313,11.2667,75.9167
"Mavelikara","India",28300,9.25929,76.5564
"Maur","India",28295,30.0833,75.25
"Hole Narsipur","India",28285,12.7864,76.2433
"Dhanaura","India",28285,28.9591,78.2563
"Piravam","India",28254,9.86667,76.5
"Mandi","India",28217,31.7119,76.9327
"Shrigonda","India",28208,18.6153,74.699
"Pandua","India",28205,23.0749,88.2864
"Punch","India",28197,33.7703,74.0925
"Pilani","India",28149,28.3673,75.6035
"Giddalur","India",28142,15.3744,78.9261
"Maddur","India",28141,12.5828,77.0429
"Maddagiri","India",28124,13.6603,77.2124
"Garhakota","India",28114,23.7791,79.1432
"Koynanagar","India",28091,17.4,73.7667
"Kumta","India",27999,14.4285,74.4189
"Losal","India",27964,27.4,74.9167
"Hisua","India",27943,24.8336,85.4173
"Dasna","India",27926,28.6774,77.5225
"Adirampattinam","India",27909,10.3406,79.3791
"Talikota","India",27902,16.4731,76.3109
"Maner","India",27901,25.646,84.8729
"Birmitrapur","India",27879,22.4,84.7667
"Erraguntla","India",27874,14.6385,78.5397
"Bamor Kalan","India",27860,24.893,78.151
"Kalakkadu","India",27845,8.5138,77.5494
"Razam","India",27832,18.4491,83.6596
"Kareli","India",27808,22.9153,79.0638
"Jalgaon Jamod","India",27794,21.0519,76.5346
"Rajaori","India",27792,33.3753,74.3092
"Jaswantnagar","India",27777,26.8827,78.9026
"Afzalgarh","India",27753,29.3937,78.6739
"Byadgi","India",27719,14.6733,75.4868
"Rehli","India",27705,23.6372,79.0628
"Raipur","India",27702,30.311,78.0898
"Mungeli","India",27698,22.0657,81.6854
"Manawar","India",27637,22.2357,75.0892
"Kondagaon","India",27626,19.5908,81.664
"Tehri","India",27611,30.3909,78.4803
"Umarkot","India",27545,19.6653,82.2063
"Nahan","India",27544,30.5603,77.2943
"Sankrail","India",27523,22.55,88.2252
"Manamadurai","India",27493,9.67318,78.471
"Kharagpur","India",27492,25.1245,86.5558
"Beldanga","India",27489,23.9343,88.2602
"Rahatgarh","India",27462,23.7897,78.3947
"Pardi","India",27423,20.5087,72.9457
"Miranpur","India",27390,29.2903,77.9494
"Silvassa","India",27359,20.2739,72.9967
"Kalanwali","India",27355,29.8357,74.9717
"Chakapara","India",27320,22.6322,88.3486
"Kalamb","India",27287,19.0444,73.9555
"Hirakud","India",27277,21.525,83.8727
"Magadi","India",27213,12.9571,77.2237
"Kundarkhi","India",27197,28.683,78.7856
"Gundlupet","India",27197,11.81,76.6903
"Bilgram","India",27173,27.1751,80.032
"Bidhuna","India",27158,26.8017,79.5083
"Perumpavur","India",27105,10.1154,76.4761
"Berasia","India",27091,23.6313,77.4335
"Gobindpur","India",27066,22.6339,86.0716
"Kotdwara","India",27009,29.7461,78.5222
"Bhawanipur","India",27000,26.4535,87.0274
"Rajgarh","India",26953,27.2373,76.6224
"Kasba","India",26937,25.8564,87.5384
"Naharlagun","India",26912,27.1047,93.6952
"Samba","India",26893,32.5625,75.1199
"Vepagunta","India",26881,17.7784,83.2158
"Kulittalai","India",26822,10.9349,78.4125
"Banmankhi","India",26806,25.8886,87.1942
"Sheoganj","India",26804,25.1392,73.0678
"Indapur","India",26752,18.3,73.25
"Kemri","India",26726,28.8067,79.2048
"Sausar","India",26704,21.6558,78.7967
"Kartarpur","India",26701,31.4427,75.4985
"Karhal","India",26693,27.0009,78.9393
"Lar","India",26688,26.2039,83.9691
"Deulgaon Raja","India",26688,20.0176,76.0376
"Mahad","India",26665,18.0833,73.4167
"Aliganj","India",26652,27.4936,79.1713
"Raver","India",26635,21.2476,76.0351
"Panagar","India",26619,23.2854,79.9951
"Hangal","India",26604,14.7647,75.1246
"Perumbavoor","India",26550,10.1069,76.4737
"Ratia","India",26524,29.6903,75.5769
"Pauri","India",26514,30.1529,78.7771
"Shahganj","India",26510,26.0497,82.6842
"Dhrol","India",26496,22.567,70.4177
"Pallippatti","India",26492,11.9399,78.4016
"Gulabpura","India",26467,25.9045,74.6602
"Hadgaon","India",26451,19.4955,77.6586
"Gadhinglaj","India",26449,16.2229,74.3501
"Rajpur","India",26443,22.3039,74.3557
"Terdal","India",26411,16.4938,75.0467
"Rangia","India",26388,26.4493,91.6136
"Jora","India",26338,26.3421,77.8092
"Kheri","India",26327,27.9035,80.7975
"Bilsi","India",26320,28.1294,78.9109
"Taloda","India",26293,21.5613,74.2124
"Polur","India",26290,12.5122,79.124
"Kalavad","India",26287,22.2079,70.3834
"Rampur","India",26257,29.8062,77.4525
"Rafiganj","India",26228,24.8176,84.6345
"Karera","India",26212,25.4582,78.1358
"Halvad","India",26205,23.0152,71.1803
"Husainabad","India",26184,24.5285,84
"Sulur","India",26183,11.0243,77.1256
"Kukshi","India",26183,22.2068,74.7579
"Elamanchili","India",26176,17.5491,82.8575
"Rajgarh","India",26164,24.0083,76.7325
"Marhaura","India",26138,25.9735,84.868
"Shiggaon","India",26118,14.9905,75.225
"Raikot","India",26114,30.65,75.6
"Ranavav","India",26011,21.6873,69.7449
"Junnar","India",25997,19.2082,73.8752
"Kanker","India",25984,20.2719,81.4918
"Kinwat","India",25956,19.6256,78.1987
"Nagari","India",25933,13.3214,79.5856
"Kalol","India",25929,22.6078,73.4627
"Chipurupalle","India",25898,18.3114,83.5685
"Renigunta","India",25895,13.6514,79.5126
"Nalhati","India",25878,24.297,87.829
"Gokarna","India",25851,14.55,74.3167
"Koregaon","India",25846,18.6457,74.0591
"Kandla","India",25845,23.0333,70.2167
"Behror","India",25815,27.8883,76.2811
"Avanigadda","India",25761,16.0215,80.9181
"Srinivaspur","India",25760,13.3391,78.2117
"Nongstoin","India",25758,25.517,91.2648
"Mussoorie","India",25753,30.455,78.0707
"Annigeri","India",25753,15.4251,75.4335
"Mahendragarh","India",25728,28.2694,76.1525
"Jais","India",25726,26.2649,81.5486
"Pawayan","India",25708,28.0663,80.1031
"Chhabra","India",25676,24.6647,76.8438
"Khajuraho Group of Monuments","India",25662,24.8481,79.9335
"Sadri","India",25632,25.1856,73.4529
"Jandiala","India",25631,31.1593,75.6176
"Uran","India",25598,18.8781,72.9392
"Pasighat","India",25581,28.0663,95.3268
"Mauganj","India",25537,24.6672,81.8734
"Tekkalakote","India",25530,15.5344,76.877
"Kallidaikurichi","India",25513,8.68591,77.4659
"Colonelganj","India",25503,27.1343,81.6987
"Mehndawal","India",25495,26.9758,83.1099
"Koelwar","India",25494,25.5805,84.7975
"Kagal","India",25479,16.577,74.3154
"Bannur","India",25455,12.3329,76.862
"Kuttampuzha","India",25436,10.1503,76.7354
"Budhlada","India",25431,29.928,75.562
"Nileshwar","India",25405,12.2595,75.1352
"Karkala","India",25374,13.2143,74.9923
"Kadakkavoor","India",25362,8.67921,76.7671
"Sundarnagar","India",25338,31.5352,76.905
"Banganapalle","India",25325,15.3177,78.2267
"Asandh","India",25323,29.5212,76.6055
"Hadagalli","India",25311,15.0205,75.9318
"Anupshahr","India",25306,28.3575,78.2691
"Jalalabad","India",25302,29.6185,77.4391
"Lumding Railway Colony","India",25283,25.749,93.17
"Songadh","India",25269,21.1697,73.5636
"Shamsabad","India",25266,27.5371,79.438
"Kithor","India",25262,28.8668,77.9386
"Machhlishahr","India",25247,25.6856,82.4111
"Baloda Bazar","India",25235,21.6568,82.1606
"Devanhalli","India",25228,13.2465,77.7118
"Gursarai","India",25191,25.6168,79.1805
"Ringas","India",25171,27.3636,75.5684
"Arumuganeri","India",25151,8.5688,78.0909
"Vayalar","India",25094,9.71158,76.3389
"Ahraura","India",25075,25.0158,83.0329
"Rampachodavaram","India",25074,17.4409,81.7756
"Malakanagiri","India",25054,18.3643,81.888
"Kanigiri","India",25045,15.4056,79.5069
"Chengannur","India",25043,9.31575,76.6151
"Chandauli","India",25035,25.258,83.2682
"Dakor","India",25019,22.7527,73.1497
"Sandi","India",25008,27.2887,79.9519
"Padam","India",25000,33.4666,76.8849
"Marayur","India",25000,10.2764,77.162
"Kolasib","India",25000,24.2239,92.6787
"Shiraguppi","India",25000,16.6187,74.7091
"Abu","India",24981,24.5937,72.7176
"Sheohar","India",24979,26.5139,85.2934
"Kunda","India",24948,25.717,81.514
"Deori Khas","India",24934,23.3902,79.0163
"Sakleshpur","India",24931,12.9412,75.7847
"Bemetara","India",24910,21.7156,81.5342
"Bawana","India",24906,28.7982,77.0343
"Periyanayakkanpalaiyam","India",24894,11.1525,76.9516
"Kanth","India",24883,29.0594,78.6295
"Charkhari","India",24881,25.403,79.7488
"Mangaldai","India",24871,26.4421,92.0305
"Vadnagar","India",24832,23.7859,72.6389
"Safipur","India",24801,26.7378,80.3435
"Kabrai","India",24771,25.4028,79.9997
"Kheda","India",24767,22.7522,72.6853
"Ponneri","India",24756,13.3387,80.1949
"Talwara","India",24752,31.9376,75.8866
"Vadakku Valliyur","India",24749,8.38286,77.6122
"Tharad","India",24697,24.396,71.6258
"Gauripur","India",24694,26.0833,89.9612
"Hosdurga","India",24685,13.7963,76.2841
"Tekkali","India",24682,18.6057,84.2355
"Pakala","India",24680,13.449,79.1149
"Minjur","India",24674,13.2795,80.2581
"Naduvannur","India",24648,11.4877,75.7751
"Andol","India",24645,17.8146,78.0771
"Bijbehara","India",24590,33.7938,75.107
"Gorantla","India",24586,13.9841,77.7722
"Dataganj","India",24562,28.0253,79.4082
"Kailaras","India",24539,26.305,77.616
"Chharra","India",24535,27.9247,78.401
"Faizpur","India",24534,21.1677,75.8601
"Chhota Udepur","India",24517,22.304,74.0158
"Jaynagar-Majilpur","India",24510,22.1758,88.4178
"Singapur","India",24457,17.4698,78.1257
"Sahaspur","India",24452,29.1213,78.6227
"Andippatti","India",24448,9.99797,77.621
"Kant","India",24430,27.8105,79.7918
"Margherita","India",24428,27.2848,95.668
"Jamtara","India",24388,23.963,86.8028
"Avinashi","India",24327,11.193,77.2686
"Iringal","India",24318,11.5593,75.6166
"Uttiramerur","India",24315,12.6143,79.7575
"Vijapur","India",24297,23.5623,72.7485
"Chiknayakanhalli","India",24292,13.4161,76.6206
"Krishnarajpet","India",24289,12.6662,76.4877
"Anjad","India",24286,22.0417,75.0552
"Aron","India",24274,24.3811,77.4174
"Narasannapeta","India",24267,18.4143,84.0446
"Sitarganj","India",24225,28.9293,79.7044
"Nandgaon","India",24209,20.3068,74.655
"Kushtagi","India",24180,15.7562,76.1911
"Sikandarpur","India",24177,26.0433,84.053
"Muhammadabad","India",24146,26.034,83.3811
"Kumbalam","India",24143,9.9063,76.3113
"Srisailain","India",24142,16.0722,78.8682
"Barki Saria","India",24134,24.1759,85.8894
"Ayakudi","India",24120,10.4499,77.552
"Gangapur","India",24118,19.6972,75.0105
"Aluva","India",24108,10.1076,76.3516
"Rajaldesar","India",24104,28.0285,74.4744
"Hastinapur","India",24093,29.1604,78.0076
"Pathardi","India",24091,19.1728,75.1742
"Colgong","India",24081,25.2633,87.2326
"Chettipalaiyam","India",24080,10.9125,77.037
"Manasa","India",24078,24.4776,75.141
"Bhachau","India",24044,23.2986,70.3428
"Bagepalli","India",24031,13.7834,77.7967
"Kotturu","India",24004,14.8244,76.22
"Mul","India",23984,20.0699,79.6783
"Shrirangapattana","India",23927,12.4226,76.6844
"Chengam","India",23904,12.3089,78.7914
"Bazpur","India",23900,29.153,79.1081
"Mangrol","India",23896,25.3306,76.5097
"Sohagpur","India",23849,22.7006,78.1952
"Murliganj","India",23843,25.8969,86.9958
"Reoti","India",23819,25.8509,84.3778
"Fatehganj West","India",23810,28.4662,79.3066
"Waraseoni","India",23800,21.7618,80.043
"Taramangalam","India",23788,11.694,77.9704
"Diu","India",23779,20.7141,70.9822
"Manihari","India",23731,25.3389,87.62
"Lalganj","India",23728,25.9318,81.7048
"Alwaye","India",23703,10.1065,76.3548
"Kharakvasla","India",23677,18.44,73.7755
"Dhanera","India",23656,24.5097,72.0234
"Penugonda","India",23654,16.6536,81.7455
"Mariani","India",23640,26.6572,94.3153
"Ladwa","India",23565,29.9935,77.0456
"Nagar","India",23546,27.424,77.0992
"Doraha","India",23545,30.7995,76.0236
"Morinda","India",23536,30.7901,76.4988
"Duliagaon","India",23528,27.3723,95.3075
"Panchla","India",23526,22.5366,88.1378
"Nadbai","India",23520,27.2229,77.1957
"Jhinjhak","India",23499,26.5609,79.7342
"Malpe","India",23496,13.3496,74.7039
"Birur","India",23493,13.5972,75.9717
"Mandal","India",23478,25.4413,74.5698
"Shishgarh","India",23471,28.7293,79.3147
"Keshorai Patan","India",23464,25.2927,75.9395
"Pawni","India",23450,20.7923,79.6364
"Chhatapur","India",23425,26.2197,87.0048
"Basni","India",23414,27.1723,73.6452
"Khategaon","India",23405,22.5957,76.9133
"Ramtek","India",23404,21.3956,79.3272
"Savantvadi","India",23384,15.9041,73.8219
"Monoharpur","India",23362,22.1083,88.0789
"Bagha Purana","India",23360,30.6881,75.0984
"Injambakkam","India",23346,12.9162,80.2488
"Dinanagar","India",23339,32.1366,75.4729
"Soygaon","India",23320,20.5961,75.6177
"Udaipur","India",23290,23.5333,91.4833
"Nasriganj","India",23286,25.0514,84.3284
"Jaleshwar","India",23280,21.8018,87.2225
"Bewar","India",23280,27.2187,79.2976
"Koothanallur","India",23257,10.7199,79.5157
"Pindwara","India",23229,24.7975,73.0551
"Navalgund","India",23208,15.5588,75.3531
"Khandela","India",23164,27.605,75.502
"Chakan","India",23161,18.7606,73.8635
"Alot","India",23134,23.7634,75.5566
"Dharuhera","India",23132,28.2055,76.7969
"Kurduvadi","India",23131,18.0934,75.4157
"Chandur","India",23125,19.7344,79.1717
"Colachel","India",23095,8.17938,77.2582
"Nakur","India",23084,29.9196,77.3044
"Shamgarh","India",23075,24.1882,75.639
"Kuchaiburi","India",23072,22.2668,86.1739
"Darwha","India",23062,20.3102,77.7726
"Pipri","India",23047,19.7937,75.5352
"Muluppilagadu","India",23030,11.7979,75.4511
"Kurinjippadi","India",23017,11.5503,79.5907
"Kudligi","India",22975,14.905,76.3853
"Vemalwada","India",22920,18.4652,78.8689
"Saidpur","India",22904,25.5375,83.2238
"Phulpur","India",22886,25.549,82.0895
"Kutiatodu","India",22880,9.8,76.3333
"Balarampur","India",22847,23.0971,86.2229
"Sambhar","India",22828,26.9081,75.1914
"Karmala","India",22809,18.4077,75.1939
"Vaikam","India",22807,9.74858,76.3964
"Raghunathpur","India",22802,23.5388,86.6735
"Amarpur","India",22796,25.0397,86.9025
"Hinjilikatu","India",22779,19.4817,84.7449
"Uttamapalaiyam","India",22778,9.80701,77.3272
"Tarana","India",22773,23.3338,76.0425
"Pariyapuram","India",22766,11.0167,75.8667
"Mukerian","India",22751,31.9539,75.6172
"Lathi","India",22745,21.7231,71.3884
"Rania","India",22741,29.5245,74.8369
"Kalamnuri","India",22708,19.6739,77.3115
"Itimadpur","India",22697,27.2354,78.1983
"Banswada","India",22665,18.3773,77.8801
"Saiha","India",22654,22.4918,92.9814
"Cumbum","India",22653,15.5817,79.1106
"Matabhanga","India",22642,26.342,89.2156
"Vattalkundu","India",22638,10.1607,77.7588
"Mahwah","India",22624,27.0459,76.9315
"Bissau","India",22620,28.2474,75.0767
"Todaraisingh","India",22613,26.024,75.4818
"Jashpurnagar","India",22607,22.8878,84.1386
"Ron","India",22593,15.6994,75.7341
"Baddi","India",22592,30.9578,76.7914
"Phillaur","India",22588,31.0189,75.7911
"Jamai","India",22587,22.1964,78.5919
"Phulera","India",22572,26.874,75.2417
"Pukhrayan","India",22555,26.2237,79.8374
"Sirsi","India",22549,28.6392,78.643
"Todabhim","India",22529,26.9167,76.8167
"Tiruppuvanam","India",22517,9.82564,78.2579
"Baswa","India",22515,27.1495,76.5835
"Curchorem","India",22510,15.2635,74.1087
"Tulsipur","India",22486,27.5337,82.4165
"Bhander","India",22482,25.7358,78.7456
"Vadippatti","India",22441,10.0848,77.9611
"Naraura","India",22432,28.2015,78.3872
"Maharajgani","India",22430,26.1102,84.5036
"Nainpur","India",22336,22.43,80.1056
"Ramanayyapeta","India",22323,16.9452,82.2385
"Silapathar","India",22307,27.5944,94.724
"Balod","India",22275,20.7308,81.2058
"Gunupur","India",22264,19.0804,83.8088
"Mariahu","India",22248,25.604,82.6038
"Purwa","India",22220,26.4576,80.774
"Sahawar","India",22201,27.796,78.8337
"Sidhauli","India",22193,27.282,80.8345
"Mayang Imphal","India",22159,24.61,93.8887
"Adra","India",22159,23.4967,86.6836
"Muhammadabad","India",22151,27.309,79.4325
"Someshwar","India",22137,13.4911,75.0665
"Sadalgi","India",22135,16.5587,74.5321
"Tinnanur","India",22125,13.1145,80.0271
"Kailashahar","India",22120,24.332,92.0039
"Beohari","India",22107,24.0242,81.3783
"Namagiripettai","India",22098,11.4551,78.2682
"Ghoti Budrukh","India",22095,19.7164,73.6282
"Siwana","India",22067,25.6515,72.4224
"Multai","India",22029,21.7746,78.2576
"Bhinga","India",22016,27.7028,81.9343
"Fatehabad","India",21957,27.0264,78.3027
"Kumher","India",21903,27.3166,77.3708
"Nattam","India",21888,10.2278,78.2297
"Laungowal","India",21880,30.1939,75.6809
"Chandrakona","India",21855,22.7333,87.5167
"Farakka","India",21834,24.8167,87.9
"Tijara","India",21833,27.9341,76.8554
"Silao","India",21828,25.0836,85.428
"Mundargi","India",21826,15.2068,75.8839
"Kuchera","India",21796,26.9875,73.9711
"Paonta Sahib","India",21787,30.4367,77.6246
"Lonar","India",21765,19.9853,76.5205
"Dattapur","India",21763,20.7808,78.1407
"Napasar","India",21750,27.9606,73.5591
"Patur","India",21747,20.4609,76.9372
"Nagod","India",21732,24.5692,80.5881
"Dum Duma","India",21706,27.5688,95.5566
"Nilakottai","India",21683,10.165,77.8502
"Peravurani","India",21663,10.2903,79.2016
"Haliyal","India",21625,15.3286,74.7564
"Dalsingh Sarai","India",21611,25.6679,85.8364
"Karanpur","India",21604,29.8404,73.4552
"Samthar","India",21582,25.8435,78.9068
"Banat","India",21580,29.4636,77.3548
"Mandalgarh","India",21569,25.1941,75.0722
"Muttupet","India",21568,10.3951,79.4935
"Sakti","India",21561,22.0266,82.9609
"Belur","India",21551,13.1656,75.8652
"Gingee","India",21530,12.2528,79.4173
"Rapar","India",21507,23.5727,70.6472
"Chamba","India",21502,32.5553,76.1265
"Maheshwar","India",21500,22.1759,75.5872
"Kasrawad","India",21484,22.1275,75.611
"Bansdih","India",21457,25.8838,84.2183
"Guruvayur","India",21416,10.5943,76.0411
"Mhasvad","India",21404,17.6336,74.7877
"Jaitaran","India",21403,26.2045,73.9368
"Ratanpur","India",21392,22.2866,82.1682
"Kurandvad","India",21388,16.6832,74.5889
"Alandi","India",21383,18.6776,73.8987
"Mandawar","India",21339,29.4865,78.1273
"Pallikondai","India",21335,12.9052,78.9427
"Akaltara","India",21333,22.0246,82.4264
"Bedi","India",21327,22.5014,70.0436
"Seondha","India",21326,26.1542,78.7812
"Kharkhauda","India",21320,28.8787,76.9107
"Deoli","India",21298,25.7573,75.3799
"Pali","India",21287,23.3645,81.0437
"Dhekiajuli","India",21271,26.7037,92.4781
"Chhata","India",21260,27.7237,77.5081
"Asifabad","India",21213,19.3585,79.2841
"Dharampur","India",21207,20.5369,73.1737
"Telhara","India",21146,21.0269,76.8389
"Deogarh","India",21134,21.5383,84.7334
"Asika","India",21134,19.6111,84.66
"Chatrapur","India",21123,19.3557,84.9836
"Basi","India",21096,26.8315,76.0486
"Dhulagari","India",21080,22.5821,88.171
"Okha","India",21048,22.4676,69.07
"Kiraoli","India",21024,27.1377,77.7852
"Kantabanji","India",21024,20.4671,82.9204
"Qadian","India",21015,31.822,75.3766
"Pokaran","India",21014,26.9201,71.9163
"Mudgal","India",21006,16.0119,76.442
"Abrama","India",21000,20.8587,72.9065
"Bagula","India",20999,23.3366,88.6411
"Gunnaur","India",20980,28.24,78.4399
"Sarauli","India",20923,28.494,79.0918
"Lalgudi","India",20916,10.8742,78.8194
"Nabinagar","India",20848,24.6068,84.1262
"Tharangambadi","India",20841,11.0276,79.8542
"Begun","India",20836,24.9833,75
"Dhing","India",20826,26.4679,92.4734
"Hukeri","India",20824,16.2308,74.6024
"Bhanvad","India",20823,21.9305,69.7808
"Morigaon","India",20807,26.2491,92.3476
"Clement Town","India",20806,30.2636,78.0086
"Ghatanji","India",20785,20.1418,78.3133
"Mudkhed","India",20776,19.1566,77.503
"Sivagiri","India",20772,9.34461,77.4291
"Latehar","India",20769,23.7442,84.4998
"Kaikalur","India",20763,16.5515,81.214
"Kheralu","India",20755,23.8853,72.6187
"Alibag","India",20752,18.6481,72.8758
"Alipur","India",20736,28.7986,77.1331
"Dasuya","India",20697,31.8168,75.6531
"Digboi","India",20685,27.3932,95.6184
"Kil Bhuvanagiri","India",20656,11.4422,79.6476
"Bhanjanagar","India",20647,19.9272,84.582
"Kuzhithurai","India",20611,8.31792,77.1919
"Dhariwal","India",20604,31.9562,75.3239
"Polasara","India",20577,19.6939,84.814
"Kishtwar","India",20553,33.3135,75.7673
"Kanniyakumari","India",20540,8.09008,77.5384
"Achhnera","India",20532,27.1783,77.7567
"Chillupar","India",20518,26.2822,83.5064
"Jaynagar","India",20496,26.5905,86.1379
"Bhuban","India",20478,20.882,85.8333
"Maniar","India",20462,25.9855,84.1723
"Machhiwara","India",20447,30.9156,76.2002
"Chincholi","India",20447,17.4651,77.4187
"Anthiyur","India",20436,11.5751,77.5904
"Nimaj","India",20424,26.15,74.0009
"Tufanganj","India",20420,26.3169,89.6655
"Harur","India",20405,12.0527,78.4802
"Dugda","India",20400,23.7452,86.1718
"Tisaiyanvilai","India",20395,8.33702,77.8678
"Channagiri","India",20376,14.024,75.9258
"Jhalu","India",20356,29.3361,78.2261
"Jahazpur","India",20350,25.6199,75.2761
"Akkarampalle","India",20325,13.65,79.42
"Byndoor","India",20323,13.8667,74.6333
"Pallappatti","India",20281,10.7206,77.8795
"Wellington","India",20254,11.3655,76.7844
"Serchhip","India",20244,23.2931,92.8468
"Penukonda","India",20220,14.0829,77.5947
"Srinagar","India",20216,30.2224,78.7834
"Padmanabhapuram","India",20212,8.24462,77.3258
"Barpali","India",20202,21.1901,83.5872
"Firozpur Jhirka","India",20195,27.7885,76.945
"Morwa","India",20168,22.9047,73.8391
"Mairwa","India",20163,26.2322,84.1635
"Jevargi","India",20157,17.0139,76.7732
"Kaimori","India",20154,23.3846,79.7442
"Mau Aimma","India",20123,25.6952,81.9234
"Falakata","India",20119,26.5196,89.2042
"Katghora","India",20113,22.5025,82.5428
"Chinna Salem","India",20111,11.6342,78.8741
"Dhaurahra","India",20098,27.9981,81.0898
"Khairagarh","India",20095,26.9427,77.8189
"Maksi","India",20094,23.26,76.1457
"Afzalpur","India",20094,17.1999,76.3602
"Narayangarh","India",20085,30.478,77.128
"Mungaoli","India",20081,24.4084,78.0959
"Pulwama","India",20071,33.8741,74.8996
"Sirumugai","India",20066,11.3214,77.0052
"Khowai","India",20046,24.0796,91.5997
"Nawa","India",20044,27.0195,75.0023
"Govardhan","India",20044,27.4966,77.4626
"Raya","India",20008,27.5561,77.7897
"Powai","India",20000,19.1164,72.9047
"Annur","India",19962,11.2362,77.1051
"Dasnapur","India",19962,19.654,78.5121
"Charthawal","India",19942,29.5469,77.5944
"Siswa Bazar","India",19939,27.1465,83.758
"Savda","India",19903,21.1505,75.8894
"Ranikhet","India",19873,29.6408,79.4323
"Kuppam","India",19854,12.7493,78.3419
"Suket","India",19851,24.6461,76.0417
"Sangod","India",19842,24.9271,76.2865
"Kulu","India",19831,31.9583,77.1082
"Deoranian","India",19788,28.6299,79.4765
"Kattanam","India",19764,9.17614,76.5632
"Marakkanam","India",19734,12.1921,79.9419
"Surajgarh","India",19721,28.31,75.7327
"Rajmahal","India",19711,25.053,87.8305
"Jhinjhana","India",19711,29.5212,77.2247
"Devgadh Bariya","India",19703,22.7052,73.9088
"Ajnala","India",19691,31.8447,74.7629
"Vadakku Viravanallur","India",19689,8.69786,77.5192
"Aklera","India",19683,24.4129,76.5672
"Sonari","India",19672,27.0246,95.0163
"Kapren","India",19671,25.4053,76.0743
"Palakkodu","India",19630,12.307,78.0702
"Chandor","India",19592,20.3306,74.2447
"Patnagarh","India",19582,20.7083,83.1326
"Lawar Khas","India",19556,29.1109,77.7777
"Sriramnagar","India",19550,17.2665,78.2554
"Dharamsala","India",19540,32.2201,76.3201
"Pinahat","India",19511,26.8849,78.3765
"Bijawar","India",19468,24.6235,79.4899
"Jansath","India",19467,29.325,77.8504
"Bundu","India",19467,23.1609,85.5901
"Richha","India",19459,28.6947,79.5228
"Bhayavadar","India",19458,21.8552,70.2479
"Aistala","India",19425,23.18,88.58
"Gannavaram","India",19410,16.5409,80.8021
"Sikka","India",19404,22.4322,69.8416
"Sojitra","India",19403,22.5388,72.7198
"Singur","India",19402,22.8092,88.2294
"Rajpur","India",19396,21.9402,75.1361
"Belsand","India",19396,26.4436,85.4008
"Kuju","India",19390,23.7254,85.5102
"Kalmeshwar","India",19386,21.2322,78.9199
"Maham","India",19383,28.9691,76.295
"Bhawanigarh","India",19376,30.2668,76.0385
"Wazirganj","India",19372,28.2115,79.0566
"Shahpur","India",19370,21.2374,76.2256
"Denkanikota","India",19358,12.5301,77.7889
"Yellapur","India",19343,14.9637,74.7093
"Maholi","India",19343,27.6637,80.4737
"Bilhaur","India",19333,26.8435,80.0639
"Taoru","India",19310,28.2117,76.9498
"Chapar","India",19301,26.2727,90.4456
"Mau","India",19299,26.2658,78.6711
"Dhanaula","India",19281,30.2822,75.5734
"Hamirpur","India",19280,31.6841,76.5251
"Kudachi","India",19272,16.6278,74.8541
"Laksar","India",19270,29.7587,78.0415
"Dindori","India",19263,22.9414,81.0798
"Bali","India",19259,25.1973,73.2912
"Ghatkesar","India",19243,17.4508,78.6837
"Banga","India",19234,31.1887,75.9949
"Chhaprauli","India",19224,29.2099,77.1745
"Kodarma","India",19180,24.4675,85.594
"Konnur","India",19166,16.2014,74.7489
"Irugur","India",19166,11.0178,77.0629
"Balachor","India",19166,31.0606,76.3017
"Chandur","India",19163,20.8141,77.9801
"Surianwan","India",19157,25.4639,82.4192
"Tekari","India",19063,24.9425,84.8427
"Dharur","India",19060,18.8202,76.1094
"Kirandul","India",19053,18.6365,81.2583
"French Rocks","India",19051,12.5009,76.6742
"Amlagora","India",19038,22.8462,87.3356
"Hungund","India",19036,16.0621,76.0586
"Vasudevanallur","India",19021,9.24171,77.4118
"Udangudi","India",19008,8.42918,78.0297
"Anshing","India",19000,20.0409,77.315
"Bhasawar","India",18996,27.0389,77.0485
"Babra","India",18993,21.8458,71.3054
"Parichhatgarh","India",18990,28.9784,77.9342
"Bhor","India",18982,18.1486,73.8434
"Kulpahar","India",18976,25.3201,79.6393
"Birpur","India",18968,26.5082,87.0119
"Harij","India",18964,23.6936,71.907
"Velur","India",18951,11.1082,78.0011
"Sulya","India",18950,12.561,75.3874
"Baud","India",18945,20.8377,84.3262
"Mulgund","India",18928,15.2807,75.5213
"Ponda","India",18898,15.4034,74.0152
"Shahpur","India",18874,29.3501,77.5516
"Marahra","India",18873,27.7368,78.5689
"Chicholi","India",18864,21.4693,79.7015
"Malvan","India",18858,16.0598,73.4629
"Pahasu","India",18854,28.1722,78.0638
"Rajgurunagar","India",18846,18.8667,73.9
"Akbarpur","India",18835,26.3837,79.9493
"Ranipur","India",18820,25.2503,79.062
"Mallasamudram","India",18820,11.4933,78.0312
"Badnawar","India",18790,23.0218,75.2327
"Chandur Bazar","India",18780,21.2385,77.7471
"Sonepur","India",18768,20.8333,83.9167
"Mon","India",18742,26.7358,95.0584
"Amod","India",18742,21.9932,72.8705
"Rangapara","India",18739,26.8377,92.6688
"Basi","India",18739,30.5881,76.845
"Nanauta","India",18738,29.7122,77.4173
"Chhapar","India",18727,27.819,74.4394
"Haldaur","India",18686,29.2899,78.2844
"Srirampur","India",18682,22.9485,88.0195
"Mandvi","India",18669,21.2553,73.3041
"Valabhipur","India",18663,21.8887,71.8793
"Samrala","India",18623,30.836,76.1932
"Kharupatia","India",18599,26.5184,92.1472
"Basi","India",18591,30.6885,76.4011
"Durgapur","India",18561,20.0054,79.3027
"Naravarikuppam","India",18555,13.1913,80.1847
"Phalauda","India",18545,29.1882,77.83
"Bhum","India",18543,18.4591,75.6588
"Khirkiyan","India",18498,22.1673,76.8614
"Rampura","India",18495,24.467,75.44
"Padampur","India",18454,29.7089,73.6254
"Namrup","India",18432,27.194,95.3193
"Along","India",18425,28.1695,94.8006
"Sanaur","India",18401,30.3018,76.4579
"Saraipali","India",18394,21.3153,83.0063
"Honavar","India",18392,14.2809,74.445
"Visavadar","India",18382,21.3395,70.7497
"Patharia","India",18358,23.8992,79.1939
"Fort Gloster","India",18350,22.5044,88.1833
"Thasra","India",18337,22.7983,73.2117
"Kakori","India",18332,26.868,80.7857
"Chetput","India",18326,13.07,80.2408
"Ramjibanpur","India",18318,22.8281,87.6089
"Daboh","India",18298,26.0024,78.8766
"Wer","India",18268,27.0186,77.1764
"Nasrullahganj","India",18265,22.6837,77.2707
"Kharsia","India",18256,21.9895,83.1048
"Pataudi","India",18248,28.3255,76.7786
"Gurmatkal","India",18236,16.8677,77.3909
"Behat","India",18223,30.1718,77.6139
"Nimaparha","India",18222,20.0576,86.0044
"Burhar","India",18191,23.2149,81.532
"Barka Kana","India",18182,23.6212,85.4675
"Jalali","India",18177,27.8668,78.2527
"Vettaikkaranpudur","India",18128,10.5621,76.913
"Anuppur","India",18122,23.1034,81.6908
"Jhalida","India",18057,23.3654,85.9764
"Fatehgarh Churian","India",18051,31.8643,74.9566
"Tirumala","India",18013,13.6833,79.35
"Bhogpur","India",18008,31.5544,75.6427
"Bhattiprolu","India",18001,16.1026,80.7807
"Barjala","India",17998,23.6182,91.356
"Kesinga","India",17994,20.1878,83.2195
"Mahishadal","India",17988,22.1862,87.9807
"Gubbi","India",17983,13.3122,76.941
"Sompeta","India",17982,18.9442,84.5845
"Dumjor","India",17972,22.6199,88.2457
"Narauli","India",17945,28.4855,78.7148
"Arukutti","India",17944,9.86667,76.35
"Murudeshwara","India",17938,14.0943,74.4845
"Kerur","India",17928,16.0138,75.5463
"Samdari","India",17915,25.813,72.5788
"Vadlapudi","India",17881,14.3112,79.8043
"V.S.K.Valasai (Dindigul-Dist.)","India",17865,10.3155,78.1514
"Handia","India",17861,25.3638,82.1865
"Sarwar","India",17860,26.0627,75.011
"Takhatpur","India",17859,22.1292,81.8696
"Sarai Mir","India",17849,26.0271,82.9184
"Chakia","India",17831,26.416,85.0467
"Katangi","India",17816,23.4412,79.7962
"Singarayakonda","India",17796,15.2305,80.0279
"Damnagar","India",17766,21.6923,71.5175
"Doda","India",17748,33.1492,75.5475
"Harpalpur","India",17731,25.2877,79.3328
"Kalanaur","India",17725,28.8282,76.3955
"Moram","India",17696,17.7881,76.4708
"Bhitarwar","India",17679,25.7922,78.1108
"Pennadam","India",17662,11.4039,79.2416
"Gangapur","India",17661,25.2195,74.2603
"Kundgol","India",17617,15.2561,75.2474
"Bargi","India",17588,22.9914,79.8755
"Jarwal","India",17576,27.1629,81.5418
"Una","India",17569,31.4649,76.2691
"Nichlaul","India",17567,27.3125,83.7253
"Raipur","India",17537,26.0426,74.0237
"Kodoli","India",17537,16.8764,74.1909
"Pundri","India",17533,29.761,76.5603
"Bhadaur","India",17532,30.4765,75.3305
"Tajpur","India",17529,29.1624,78.4846
"North Guwahati","India",17516,26.1975,91.7202
"Arang","India",17503,21.1964,81.9691
"Devgarh","India",17500,25.5253,73.9081
"Banapur","India",17499,19.7789,85.1703
"Murbad","India",17494,19.254,73.3899
"Perundurai","India",17488,11.2756,77.5879
"Mundwa","India",17465,27.0631,73.823
"Calangute","India",17446,15.5439,73.7553
"Sarai Akil","India",17443,25.3789,81.5104
"Amet","India",17434,25.3061,73.9258
"Naregal","India",17403,15.5732,75.8081
"Raybag","India",17389,16.4918,74.7739
"Bagdogra","India",17372,26.6993,88.3118
"Indergarh","India",17366,26.9352,79.6712
"Nilokheri","India",17360,29.8367,76.9319
"Alangayam","India",17357,12.6223,78.7521
"Howli","India",17354,26.4224,90.98
"Banur","India",17349,30.5541,76.7195
"Phirangipuram","India",17335,16.2908,80.2623
"Chhoti Sadri","India",17335,24.3815,74.7012
"Jalalpur","India",17325,20.949,72.8983
"Chhala","India",17323,23.3078,72.774
"Takhatgarh","India",17285,25.3223,73.0049
"Sardulgarh","India",17270,29.6922,75.2361
"Bhanpuri","India",17270,21.0919,80.9322
"Naldurg","India",17261,17.8167,76.2818
"Rahimatpur","India",17260,17.5921,74.1997
"Mulki","India",17259,13.091,74.7935
"Sriperumbudur","India",17253,12.9676,79.942
"Balugaon","India",17238,20.1784,85.1133
"Bilthra","India",17228,26.1271,83.8915
"Khanapur","India",17216,15.6397,74.5085
"Khetri","India",17177,28.0007,75.7864
"Kolaras","India",17174,25.2193,77.6117
"Mendarda","India",17166,21.3211,70.4408
"Taleigao","India",17148,15.4691,73.8328
"Uttarkashi","India",17123,30.7299,78.4434
"Rajgarh","India",17113,22.6782,74.9448
"Moirang","India",17103,24.4975,93.7779
"Nirmali","India",17102,26.314,86.5854
"Bhanpura","India",17082,24.513,75.7469
"Amroli","India",17082,21.2508,72.8388
"Chalala","India",17081,21.4107,71.1662
"Madambakkam","India",17058,12.8525,80.0467
"Mahiari","India",17051,22.5883,88.2354
"Naraina","India",17048,26.7907,75.2061
"Adampur","India",17027,31.4322,75.7148
"Aurad","India",17019,18.254,77.4176
"Nawabganj","India",17015,26.864,82.141
"Maghar","India",17011,26.7559,83.1277
"Jatara","India",17002,25.0096,79.0487
"Mundgod","India",17000,14.9714,75.0366
"Vasind","India",16970,19.4084,73.2628
"Narwar","India",16948,25.6439,77.9129
"Bhindar","India",16945,24.5023,74.1855
"Manjhanpur","India",16939,25.5305,81.3757
"Depalpur","India",16936,22.851,75.5422
"Alnavar","India",16926,15.4273,74.7411
"Tanakpur","India",16905,29.074,80.1114
"Jawad","India",16887,24.5992,74.8626
"Kutiyana","India",16877,21.6241,69.9849
"Amarpatan","India",16858,24.3137,80.977
"Junagarh","India",16856,19.8599,82.9339
"Challapalle","India",16841,16.1176,80.9314
"Papanasam","India",16837,10.9269,79.2706
"Konarka","India",16834,19.8976,86.1141
"Mahudha","India",16828,22.8208,72.9403
"Sivagiri","India",16779,11.1203,77.7881
"Nagamangala","India",16760,12.8194,76.7546
"Honnali","India",16753,14.2398,75.6451
"Amta","India",16753,22.5834,88.0104
"Kadod","India",16747,21.2172,73.2197
"Harsud","India",16736,22.0995,76.7342
"Belonia","India",16735,23.2518,91.4541
"Beri Khas","India",16727,28.7015,76.5771
"Koath","India",16725,25.3264,84.2598
"Deshnoke","India",16720,27.7984,73.343
"Kanke","India",16712,23.4348,85.3206
"Hirekerur","India",16688,14.4551,75.3952
"Deoli","India",16685,20.6492,78.4802
"Phaphund","India",16675,26.5989,79.4644
"Babrala","India",16670,28.2642,78.4056
"Athagarh","India",16665,20.52,85.6296
"Malihabad","India",16649,26.9222,80.7108
"Jhusi","India",16642,25.4375,81.9055
"Gummidipundi","India",16605,13.4076,80.1088
"Shirhatti","India",16604,15.2335,75.58
"Teonthar","India",16578,24.9821,81.6419
"Bokajan","India",16561,26.0213,93.7794
"Noamundi","India",16558,22.1609,85.5042
"Salumbar","India",16557,24.1352,74.0444
"Banki","India",16555,20.3791,85.5295
"Palera","India",16554,25.0201,79.2282
"Garui","India",16499,22.6333,88.4
"Khatra","India",16484,22.9762,86.8546
"Garhshankar","India",16470,31.2154,76.1415
"Tondi","India",16468,9.74173,79.0177
"Nainwa","India",16415,25.7715,75.8498
"Khilchipur","India",16411,24.0394,76.578
"Bharwari","India",16411,25.5608,81.4916
"Katpadi","India",16408,12.9695,79.1455
"Bhainsdehi","India",16400,21.6449,77.6302
"Madipakkam","India",16396,12.9623,80.1986
"Talwandi Bhai","India",16391,30.8558,74.9298
"Kumbhraj","India",16391,24.3734,77.0484
"Gokavaram","India",16389,17.2582,81.8499
"Padampur","India",16387,20.9993,83.0632
"Khada","India",16350,27.1833,83.8833
"Sultanpur","India",16344,31.2147,75.196
"Jasidih","India",16338,24.5138,86.6458
"Sancoale","India",16311,15.3779,73.9035
"Narnaund","India",16299,29.2205,76.1428
"Gandarbal","India",16271,34.2262,74.7748
"Chennimalai","India",16268,11.1638,77.6039
"Bahula","India",16264,23.6518,87.1647
"Bilgi","India",16257,16.3471,75.618
"Kulgam","India",16246,33.6446,75.0192
"Gandevi","India",16240,20.8121,72.9981
"Badvel","India",16238,14.7451,79.0629
"Makum","India",16225,27.4865,95.4365
"Kamalganj","India",16222,27.2618,79.6313
"Mahgawan","India",16176,26.4947,78.6159
"Babai","India",16176,22.7026,77.9349
"Pushkar","India",16173,26.4902,74.5521
"Baihar","India",16168,22.1013,80.5497
"Bandikui","India",16165,27.0509,76.5732
"Anamalais","India",16131,10.583,76.9344
"Nambiyur","India",16126,11.3581,77.3212
"Cuncolim","India",16122,15.1773,73.9939
"Piriyapatna","India",16099,12.335,76.1007
"Shahi","India",16064,28.5502,79.3176
"Neral","India",16060,19.0247,73.3169
"Guru Har Sahai","India",16027,30.7086,74.4041
"Nayagarh","India",16001,20.1288,85.0963
"Hajo","India",15977,26.2452,91.5253
"Virarajendrapet","India",15976,12.1964,75.8051
"Bhikhi","India",15961,30.0592,75.535
"Indri","India",15954,29.88,77.0597
"Thakurganj","India",15953,26.4274,88.1311
"Udalguri","India",15935,26.7537,92.1021
"Vasa","India",15934,22.6608,72.7552
"Rura","India",15908,26.49,79.9011
"Vadamadurai","India",15886,10.4408,78.0978
"Kannod","India",15870,22.6676,76.7429
"Ajra","India",15864,16.116,74.211
"Pipraich","India",15856,26.8274,83.5263
"Shahpur","India",15850,25.6029,84.4041
"Sunel","India",15840,24.3706,75.9571
"Unhel","India",15837,23.3379,75.5593
"Sisauli","India",15837,29.4139,77.4689
"Bara Uchana","India",15830,29.4675,76.178
"Mihona","India",15830,26.2837,78.9805
"Kamakhyanagar","India",15818,20.9338,85.5449
"Arkalgud","India",15802,12.7617,76.0603
"Abhayapuri","India",15802,26.3225,90.6853
"Jodiya Bandar","India",15788,22.7167,70.2833
"Jagalur","India",15787,14.5196,76.3391
"Dumra","India",15778,26.5671,85.5204
"Pennagaram","India",15758,12.1343,77.8952
"Bhudgaon","India",15738,16.9074,74.5995
"Kankauli","India",15735,16.2661,73.7122
"Khairagarh","India",15734,21.4186,80.9794
"Khatima","India",15714,28.9213,79.9707
"Boisar","India",15692,19.8036,72.756
"Neelankarai","India",15688,12.9495,80.2592
"Bagar","India",15670,28.1878,75.5001
"Srivaikuntam","India",15665,8.62931,77.9128
"Manthani","India",15661,18.6509,79.665
"Madukkur","India",15631,10.481,79.3994
"Khutar","India",15618,28.2031,80.2705
"Bari Sadri","India",15616,24.4134,74.4733
"Baberu","India",15607,25.5471,80.7044
"Lakhnadon","India",15589,22.6005,79.6009
"Kota","India",15582,22.2951,82.0237
"Chanasma","India",15572,23.7147,72.1128
"Nahorkatiya","India",15548,27.2891,95.3418
"Bilsanda","India",15538,28.2434,79.9513
"Leteri","India",15519,24.0598,77.4086
"Holalkere","India",15480,14.0429,76.185
"Kotaparh","India",15479,19.1426,82.3254
"Vada","India",15474,19.6535,73.1481
"Udaipura","India",15473,23.0743,78.5111
"Nilgiri","India",15462,21.4624,86.7679
"Kosigi","India",15455,15.8551,77.2446
"Kalghatgi","India",15428,15.1832,74.971
"Kalugumalai","India",15423,9.14941,77.7057
"Tirthahalli","India",15422,13.6883,75.2455
"Parvatsar","India",15405,26.886,74.766
"Pathalgaon","India",15394,22.5566,83.4635
"Asind","India",15389,25.7342,74.3328
"Kachhwa","India",15381,25.2062,82.7144
"Sayla","India",15376,22.5492,71.4832
"Naspur","India",15374,18.8458,79.4616
"Bah","India",15359,26.8691,78.5938
"Dornakal","India",15350,17.4447,80.149
"Mirganj","India",15335,28.5401,79.2082
"Punahana","India",15332,27.8637,77.2043
"Katangi","India",15321,21.7737,79.8051
"Bhikangaon","India",15321,21.8676,75.9639
"Dicholi","India",15315,15.5932,73.9457
"Kathor","India",15311,21.2885,72.9407
"Pipili","India",15301,20.1136,85.8315
"Dalkola","India",15285,25.8758,87.8401
"Srivardhan","India",15279,18.0459,73.0155
"Anandpur","India",15229,31.2393,76.5025
"Mundra","India",15220,22.8392,69.7219
"Khuldabad","India",15213,20.0067,75.1925
"Gangolli","India",15200,13.6502,74.6707
"Chotila","India",15197,22.4235,71.1964
"Khapa","India",15175,21.4224,78.9817
"Hindoria","India",15142,23.9035,79.5686
"Korwai","India",15136,24.1177,78.0401
"Kenda","India",15131,23.1959,86.515
"Phek","India",15118,25.6667,94.5
"Sorada","India",15117,19.7608,84.43
